,id,uid,name,lat,lng,address,postal_code,city_id,city_name,city_insee,city_tier,phone,email,since,created_at,network_name,conservation_care,funeral_organization,management_and_use_of_funeral_chambers,provide_hearses_and_mourning_cars,supply_covers_coffins_interior_exterior_accessories_urns,supply_personnel_items_services,transport_body_before_after_burial,habilitation_issued_at,habilitation_expired_at,habilitation_number,cinerary_monuments,deceased_transport,establishment_pictures,establishment_video,funeral_accessories_and_urns,marble_services,monuments_maintenance,mpf_url,online_administrative_procedures,online_death_notice,online_quote_request,permanence_days,siret_number,religion,undertaker_type,status
0,38437,e97f1f709d105074,AIN FUNERAIRES,46.2284033,5.2295099,"82, route de Marboz",01000,563,Bourg-en-Bresse,01053,1,0645488584,ain.funeraire@orange.fr,,2020-10-23 10:11:50.183823,Services funéraires Sublimatorium Florian Leclerc,0,1,0,1,1,1,1,,,,1,1,1,0,1,1,1,https://meilleures-pompes-funebres.com/01/bourg-en-bresse/pompes-funebres-florian-leclerc-sublimatorium,0,0,0,1,,-1,0,0
1,38438,cfa5ef8f3d36d26a,Pompes Funèbres BOUVET,46.2144831,5.234217,17 avenue de l'Egalité,01000,563,Bourg-en-Bresse,01053,1,0474220102,contact.bourg@pfbouvet.com,,2020-10-23 10:11:50.609249,FUNÉPLUS,1,1,1,1,1,1,1,,,20-01-0050,-1,1,1,0,1,1,1,https://meilleures-pompes-funebres.com/01/bourg-en-bresse/pompes-funebres-bouvet,-1,0,0,1,384 089 124 00075,-1,0,0
2,38439,3e0d898e555bd72e,Pompes Funèbres Générales,46.21431,5.2336205,15 avenue de l'Egalité,01000,563,Bourg-en-Bresse,01053,1,0474226104,Agence-BourgEnBresse-1@PFG.FR,,2020-10-23 10:11:50.739419,PFG Services Funéraires,0,1,1,1,1,1,1,,,,-1,1,1,0,1,1,1,https://meilleures-pompes-funebres.com/01/bourg-en-bresse/pfg-pompes-funebres-generales,1,1,1,1,,-1,0,0
3,38440,a5e2122c22af9d34,Pompes Funèbres Oyonnax,46.2580303,5.6554508,10 avenue Jean Jaurès,01100,463,Oyonnax,01283,2,0474770095,jolletp@wanadoo.fr,,2020-10-23 10:11:50.855313,,1,1,1,1,1,1,1,,,,0,1,1,0,1,1,1,https://meilleures-pompes-funebres.com/01/oyonnax/pompes-funebres-oyonnax,0,0,0,1,,-1,0,0
4,38441,61b8cc9a659ab6e8,Pompes Funèbres d'Oyonnax,46.2453149,5.6391421,73 rue Brillat Savarin,01100,463,Oyonnax,01283,2,0474770095,jolletp@wanadoofr,,2020-10-23 10:11:50.987493,,1,1,1,1,1,1,1,,,,-1,-1,-1,-1,-1,-1,-1,,-1,-1,-1,-1,,-1,2,2
5,38442,a1bb06803e466fda,Pompes Funèbres Marbrerie Comtet,46.2640192,5.6328115,11 rue des Chérolles,01100,463,Oyonnax,01283,2,0474120420,Agence-Oyonnax-1@DIGNITE.FR,,2020-10-23 10:11:51.123198,Dignité Funéraire,1,1,1,1,1,1,1,,,18.01.211,1,1,0,0,1,1,1,https://meilleures-pompes-funebres.com/01/oyonnax/comtet-funeraire,0,1,1,1,799 726 815 00019,-1,0,0
6,38444,ac604b10cd0af52e,Pompes Funèbres Générales,45.9749503,5.5993641,229 avenue de Lyon,01110,226,Hauteville-Lompnes,01185,2,0474353031,Agence-HautevilleLompnes-1@PFG.FR,,2020-10-23 10:11:51.385996,PFG Services Funéraires,0,1,1,1,1,1,1,,,,1,1,1,0,1,1,1,https://meilleures-pompes-funebres.com/01/hauteville-lompnes/pompes-funebres-generales-pfg,0,1,1,1,,-1,0,0
7,38445,12a3655caecb8d38,La Maison des Obsèques - Ets Lefèvre,46.1799965,4.8116769,416 rue Joseph Berlioz,01140,244,Saint-Didier-sur-Chalaronne,01348,2,0474669459,,,2020-10-23 10:11:51.568595,La Maison des obsèques,1,1,1,1,1,1,1,,,,1,1,0,0,1,1,1,https://meilleures-pompes-funebres.com/01/chatillon-sur-chalaronne/la-maison-des-obseques-ets-goyon-saint-didier-sur-chalaronne,0,1,1,1,,-1,0,0
8,38446,f46f1e896ced78eb,Marbrerie Pompes Funèbres de Lagnieu,45.9033566,5.3488755,25 rue Pasteur,01150,386,Lagnieu,01202,2,0474401533,,,2020-10-23 10:11:51.718313,,0,1,1,1,1,1,1,,,,-1,-1,-1,-1,1,1,1,https://meilleures-pompes-funebres.com/01/lagnieu/marbrerie-pompes-funebres-lagnieu,-1,-1,-1,1,407 864 677 00023,-1,0,0
9,38447,a93f58f59774c59b,Pompes Funèbres Générales,46.3246316,6.0545965,831 Route de Lyon,01170,599,Gex,01173,2,0450415107,Agence-Gex-1@PFG.FR,,2020-10-23 10:11:51.860295,PFG Services Funéraires,1,1,1,1,1,1,1,,,,1,1,0,0,1,1,1,https://meilleures-pompes-funebres.com/01/gex/pompes-funebres-generales-pfg,0,1,1,1,542 076 799 09487,-1,0,0
10,38448,24a901e810bfa29d,Pompes Funèbres Marbrerie Funeralp,46.3296689,6.0566641,243 avenue Francis Blanchard,01170,599,Gex,01173,2,0465663583,gex@pompesfunebresfuneralp.fr,,2020-10-23 10:11:51.994496,,1,1,0,1,1,1,1,,,16.01.161,0,1,0,0,1,1,1,https://meilleures-pompes-funebres.com/01/gex/sarl-white-wings,0,1,1,1,520 338 997 00015,-1,0,0
11,38449,93a8278d3e12b4db,Espace Funéraire Carrara,46.3857841,4.9147939,23 impasse en Chossagne,01190,189,Ozan,01284,2,0385514949,,,2020-10-23 10:11:52.126236,,1,1,1,1,1,1,1,,,,0,1,1,0,1,1,1,https://meilleures-pompes-funebres.com/01/ozan/espace-funeraire-carrara,1,1,0,1,332 085 943 00055,-1,0,0
12,38450,9aa3e3084461fabe,Pompes Funèbres et Marbrerie Taton,46.4310668,4.937537,"46, rue Maréchal de Lattre",01190,389,Pont-de-Vaux,01305,2,0385303207,Agence-Pont-De-Vaux-1@DIGNITE.FR,,2020-10-23 10:11:52.256290,Dignité Funéraire,0,1,1,1,1,1,1,,,,1,1,1,0,1,1,1,https://meilleures-pompes-funebres.com/01/pont-de-vaux/pompes-funebres-regionales-taton,0,1,1,1,542 076 799 24437,-1,0,0
13,38451,77d4e2d13cf8f9dd,Marbrerie CARRARA,46.4303078,4.9407515,"17, rue Adrien Thierry",01190,389,Pont-de-Vaux,01305,2,0385366880,direction@espacecarraracom,,2020-10-23 10:11:52.381404,,0,1,0,1,1,1,1,,,,-1,-1,-1,-1,-1,-1,-1,,-1,-1,-1,-1,,-1,2,4
14,38452,62ea8e5b7aa01530,Pompes Funèbres et Marbrerie Gandy,46.1083064,5.8287133,6-8 rue de la République,01200,562,Bellegarde-sur-Valserine,01033,2,0682588368,gandypompesfunebres@gmail.com,,2020-10-23 10:11:52.512469,,0,1,1,1,0,1,1,,,,1,1,0,0,1,1,1,https://meilleures-pompes-funebres.com/01/bellegarde-sur-valserine/gandy-pompes-funebres-marbrerie,0,0,0,1,,-1,0,0
15,38453,d1c98172f113b9eb,Pompes Funèbres Générales,46.1177034,5.8213274,12 chemin du cimetière,01200,562,Bellegarde-sur-Valserine,01033,2,0450566352,Agence-Bellegarde-1@PFG.FR,,2020-10-23 10:11:52.635178,PFG Services Funéraires,1,1,1,1,1,1,1,,,,1,1,0,0,1,1,1,https://meilleures-pompes-funebres.com/01/bellegarde-sur-valserine/pompes-funebres-generales-pfg,0,1,1,1,542 076 799 09479,-1,0,0
16,38454,c3736f7edecc1add,GANDY Pompes Funèbres et Marbrerie,46.2512711,6.1179092,01 chemin du Nant,01210,417,Ferney-Voltaire,01160,2,0682588368,,,2020-10-23 10:11:52.801566,,1,1,1,1,1,1,1,,,,1,1,1,0,1,1,1,https://meilleures-pompes-funebres.com/01/ferney-voltaire/gandy-pompes-funebres-marbrerie,0,0,1,1,,-1,0,0
17,38455,67d8d3295e09166e,Pompes Funèbres Ain Bugey,45.9491084,5.4409995,90 Rue Dr Temporal,01230,543,Saint-Rambert-en-Bugey,01384,2,0474362135,pf.ainbugey2@orange.fr,,2020-10-23 10:11:52.920417,,0,1,1,1,1,1,1,,,1201176,1,1,1,1,1,1,1,https://meilleures-pompes-funebres.com/01/saint-rambert-en-bugey/pompes-funebres-ain-bugey-rambert-en-bugey,0,0,1,1,,-1,0,0
18,38456,5fcfd39142dd8185,Pompes Funèbres S.S.M,46.1829262,5.3093546,zone Artisanale en Domagne,01250,518,Ceyzériat,01072,2,0474250505,ssmsarl@orange.fr,,2020-10-23 10:11:53.057330,,0,1,1,1,1,1,1,,,,-1,1,0,0,1,1,1,https://meilleures-pompes-funebres.com/01/ceyzeriat/s-s-m-depannage,0,0,0,1,384 952 404 00026,-1,0,0
19,38457,20c1ccbf2edbf921,Pompes Funèbres et Marbrerie de l'Ain,46.2622783,4.8837037,20 rue des Roselets,01290,582,Pont-de-Veyle,01306,2,0385239034,Agence-PontDeVeyle-1@DIGNITE.FR,,2020-10-23 10:11:53.184345,Dignité Funéraire,0,1,1,1,1,1,1,,,,-1,1,0,0,1,1,1,https://meilleures-pompes-funebres.com/01/pont-de-veyle/pompes-funebres-et-marbrerie-de-l-ain,0,1,1,1,,-1,0,0
20,38458,8d52bbe50a6ea0d2,Pompes Funèbres Tonin-Coiffet,45.7601172,5.6865842,3 place des Terreaux,01300,492,Belley,01034,2,0479811109,mcoiffet@aliceadsl.fr,,2020-10-23 10:11:53.310453,,0,1,1,1,1,1,1,,,,0,1,1,0,1,0,-1,https://meilleures-pompes-funebres.com/01/belley/les-pompes-funebres-tonin-coiffet,0,1,0,1,545 820 011 00017,-1,0,0
21,38459,4b1142352a55e86f,Marbrerie De Villa Aldo Et Fils,45.6921619,5.5935055,"128, route du champ",01300,318,Saint-Benoît,01338,2,0474397041,,,2020-10-23 10:11:53.438545,,0,0,0,0,1,1,0,,,,0,0,1,1,1,1,1,,0,0,0,-1,353 519 937 00018,-1,0,0
22,38460,a898101a040219d0,Pompes Funèbres BOUVIER - Le Choix Funéraire,45.745653,5.708776,ZAC de Coron- La Rivoire,01300,422,Virignin,01454,2,0479879579,,,2020-10-23 10:11:53.548171,Le Choix Funéraire,0,1,1,1,1,1,1,,,,1,1,-1,-1,1,0,-1,,0,1,1,1,500 104 815 00039,-1,0,0
23,38461,cbce095afa8b157f,Pompes Funèbres LIMAT,45.9936988,4.9076207,338 Route du Gouverneur,01330,409,Ambérieux-en-Dombes,01005,2,0474008283,,,2020-10-23 10:11:53.652501,,0,1,1,1,1,1,1,,,,-1,1,-1,-1,1,-1,-1,https://meilleures-pompes-funebres.com/01/amberieux-en-dombes/pompes-funebres-limat,-1,-1,-1,1,316 711 563 00015,-1,0,0
24,38462,790d9daf9419be1b,Pompes Funèbres BOUVET,46.0052332,5.0284568,219 rue de Bresse,01330,330,Villars-les-Dombes,01443,2,0474980100,contact.villars@pfbouvet.com,,2020-10-23 10:11:53.763172,FUNÉPLUS,0,1,1,1,1,1,1,,,20-01-0050,1,1,1,0,1,1,1,https://meilleures-pompes-funebres.com/01/villars-les-dombes/pompes-funebres-bouvet,0,1,1,1,384 089 124 00018,-1,0,0
25,38463,0af5beaeb4d2c00d,Pompes Funèbres METRAS,46.0059169,5.035037,289 rue Pierre Poivre,01330,330,Villars-les-Dombes,01443,2,0474981797,,,2020-10-23 10:11:53.891327,,1,1,1,1,1,1,1,,,,1,1,1,1,1,1,1,https://meilleures-pompes-funebres.com/01/villars-les-dombes/pompes-funebres-metras,0,0,0,1,414 551 713 00012,-1,0,0
26,38464,3c8119ae0693cdba,Pompes Funèbres COMTET,46.3422279,5.1268114,29 route de Châlon,01340,261,Montrevel-en-Bresse,01266,2,0474320917,Agence-MontrevelEnBresse-1@DIGNITE.FR,,2020-10-23 10:11:53.995947,Dignité Funéraire,1,1,1,1,1,1,1,,,,1,1,0,0,1,1,1,,0,0,1,1,,-1,0,0
27,38465,97afb6e554d3eda4,Pompes Funèbres Régionales TONIN-COIFFET,45.8453124,5.7801169,56 Rue de la Gare,01350,219,Culoz,01138,2,0479870384,,,2020-10-23 10:11:54.114412,,0,1,1,1,1,1,1,,,,1,1,1,0,1,0,-1,https://meilleures-pompes-funebres.com/01/culoz/pompes-funebres-tonin-coiffet,-1,1,0,1,,-1,0,0
28,38466,4a11e7597d38dd42,Pompes Funèbres BERTRAND - Le Choix Funéraire,46.2877157,5.292032,125 rue de l’église,01370,225,Saint-Étienne-du-Bois,01350,2,0437621247,,,2020-10-23 10:11:54.228158,Le Choix Funéraire,1,1,1,1,1,1,1,,,,-1,1,0,0,1,1,1,https://meilleures-pompes-funebres.com/01/saint-etienne-du-bois/le-choix-funeraire-pompes-funebres-marbrerie-bertrand-concessionnaire,-1,0,1,1,,-1,0,0
29,38467,92e531482378b002,Espace Funéraire et Marbrerie CARRARA,46.287881,4.910191,"21, Rue des Essarts",01380,388,Saint-André-de-Bâgé,01332,2,0385301213,direction@espace-carrara.com,,2020-10-23 10:11:54.333215,,1,1,1,1,1,1,1,,,,-1,1,1,0,1,1,1,,1,1,0,1,332 085 943 00063,-1,0,0
30,38468,05692fd013fe601f,Pompes Funèbres METRAS,45.9309838,4.9547522,02 impasse de la Vernangère,01390,254,Saint-André-de-Corcy,01333,2,0472260217,,,2020-10-23 10:11:54.454360,,1,1,1,1,1,1,1,,,,1,1,1,1,1,1,1,https://meilleures-pompes-funebres.com/01/saint-andre-de-corcy/rey,-1,0,0,1,414 551 713 00046,-1,0,0
31,38469,d115afafa6c7419f,Pompes Funèbres METRAS,46.114005,4.9441655,Parc d'activités,01400,436,Châtillon-sur-Chalaronne,01093,2,0474551717,,,2020-10-23 10:11:54.577232,,1,1,1,1,1,1,1,,,,1,1,1,1,1,1,1,,-1,0,0,1,,-1,0,0
32,38470,40ed8c13ec709b17,Pompes Funèbres et Marbrerie Comtet,46.2244749,5.2055115,"1269, route de Paris",01440,1,Viriat,01451,2,0474239090,Agence-Viriat-1@DIGNITE.FR,,2020-10-23 10:11:54.683292,Dignité Funéraire,1,1,1,1,1,1,1,,,,1,1,0,0,1,1,1,,0,1,1,1,,-1,0,0
33,38471,7e2e74239728dd2b,ULTIL MARBRE,45.992639,4.7780766,impasse de la petite prairie,01480,380,Frans,01166,2,0661721030,ultilmarbre01@gmailcom,,2020-10-23 10:11:54.802173,,0,0,0,0,0,1,0,,,,-1,-1,-1,-1,-1,-1,-1,,-1,-1,-1,-1,,-1,2,1
34,38472,69057c74c3da9228,Pompes Funèbres Générales,45.9711007,5.3515696,5 rue du Repos,01500,390,Ambérieu-en-Bugey,01004,2,0474380566,,,2020-10-23 10:11:54.920992,PFG Services Funéraires,0,1,1,1,1,1,1,,,,1,1,1,0,1,1,1,https://meilleures-pompes-funebres.com/01/amberieu-en-bugey/pompes-funebres-generales-pfg,0,1,1,1,542 076 799 11848,-1,0,0
35,38473,9bb95583e4b41c5c,La Maison des Obsèques Pompes Funèbres Lefèvre-Goyon & associés,46.214955,5.0134481,691 route de Namary,01540,520,Vonnas,01457,2,0474500469,vonnas@lamaisondesobseques.fr,,2020-10-23 10:11:55.034097,La Maison des obsèques,0,1,1,1,1,1,1,,,,1,1,0,0,1,1,1,https://meilleures-pompes-funebres.com/01/vonnas/la-maison-des-obseques-ets-goyon-vonnas,1,1,1,1,,-1,0,0
36,38474,2871f5b320a940c1,Pompes Funèbres Générales,45.9409766,4.7729879,9 rue du Port,01600,561,Trévoux,01427,2,0474001705,Agence-Trevoux-1@PFG.FR,,2020-10-23 10:11:55.174284,PFG Services Funéraires,0,1,0,1,1,1,1,,,,0,1,1,0,1,1,1,https://meilleures-pompes-funebres.com/01/trevoux/pompes-funebres-generales-pfg,1,1,1,1,542 076 799 09511,-1,0,0
37,38475,9f8b8d2f18a8d060,Pompes Funèbres BOUVET,45.9404782,4.7778837,1 rue du Bois,01600,561,Trévoux,01427,2,0474001515,contact.trevoux@pfbouvet.com,,2020-10-23 10:11:55.282077,FUNÉPLUS,1,1,0,1,1,1,1,,,20-01-0050,1,1,1,0,1,1,1,https://meilleures-pompes-funebres.com/01/trevoux/pompes-funebres-bouvet,1,1,1,1,384 089 124 00059,-1,0,0
38,38476,dd3d0c549e625e7a,Pompes Funèbres BOUVET,45.9466565,4.7542356,508 Allée des Filièristes,01600,561,Trévoux,01427,2,0474081639,cfbouvet@orangefr,,2020-10-23 10:11:55.402511,,1,1,1,1,1,1,1,,,,-1,-1,-1,-1,-1,-1,-1,,-1,-1,-1,-1,,-1,2,2
39,38477,ab124e7544d23009,COLLET Sébastien,46.244985,6.026832,"12, rue des Hautains",01630,237,Saint-Genis-Pouilly,01354,3,0671465111,colletsebastien@hotmailcom,,2020-10-23 10:11:55.530152,,0,1,1,1,1,1,1,,,,-1,-1,-1,-1,-1,-1,-1,,-1,-1,-1,-1,,-1,1,0
40,38478,3232255fc1187ed3,Pompes Funèbres Marbrerie ALLARDET,46.045196,5.468438,Chatillon de Cornelle,01640,288,Boyeux-Saint-Jérôme,01056,2,0474368801,pompes.funebres.allardet@gmail.com,,2020-10-23 10:11:55.646179,,0,1,1,1,1,1,1,,,,1,1,0,0,1,1,1,https://meilleures-pompes-funebres.com/01/boyeux-saint-jerome/pompes-funebres-dejon-marbrerie-allardet,0,0,1,1,517 719 076 00013,-1,0,0
41,38479,4d92334017c96e69,Marbrerie GROS-DERUDET,45.8285021,4.9640692,"500, rue de Saint Martin",01700,323,Miribel,01249,2,0478551236,,,2020-10-23 10:11:55.745085,,0,1,0,0,1,1,0,,,,-1,-1,-1,-1,1,1,1,,-1,-1,-1,-1,339 960 064 00022,-1,0,0
42,38480,a9bbcc666fa7a54f,Pompes Funèbres PINAULT,45.824809,4.955069,"1174, Grande Rue",01700,323,Miribel,01249,2,0478551831,miribel@pfpinault.com,,2020-10-23 10:11:55.874778,,1,1,1,1,1,1,1,,,20.01.0065,1,1,1,0,1,1,1,https://meilleures-pompes-funebres.com/01/miribel/pompes-funebres-pinault,0,0,1,1,337 746 465 00042,-1,0,0
43,38481,19fe1fcd313edd6d,ART'BURY,45.9023447,5.1905071,26 rue de Lyon,01800,542,Meximieux,01244,2,0474370622,,,2020-10-23 10:11:55.975935,,1,1,0,1,1,1,1,,,,-1,-1,-1,-1,-1,-1,-1,,-1,-1,-1,-1,,-1,2,4
44,38482,ae0342d798bbb749,Pompes Funèbres Marbrerie de la Côtière,45.9024023,5.1982231,14 rue des Verchères,01800,542,Meximieux,01244,2,0474610525,mpfcotiere@orange.fr,,2020-10-23 10:11:56.096228,,1,1,1,1,1,1,0,,,,0,1,1,0,1,1,1,https://meilleures-pompes-funebres.com/01/meximieux/pompes-funebres-de-la-cotiere,0,0,0,-1,420 541 310 00025,-1,0,0
45,38483,0bc4d83f68614bc3,Marbrerie François GIVRE,46.169943,5.1942278,521 Allée du Thioudet – ZAC de Monternoz,01960,256,Péronnas,01289,2,0474210946,fgivre@wanadoo.fr,,2020-10-23 10:11:56.266017,,0,1,0,0,1,1,0,,,,0,0,1,0,1,1,1,,0,0,0,-1,,-1,0,0
46,38484,6d972e8bcf921deb,Pompes funèbres les Fils de Robert Sautier,49.5739339,3.6388407,43 bis rue de Manoise,02000,758,Laon,02408,2,0323790818,,,2020-10-23 10:11:56.383467,,0,1,1,1,1,1,1,2012-03-29,2022-05-18,2010-02-33,-1,1,1,0,1,1,1,https://meilleures-pompes-funebres.com/02/laon/pompes-funebres-fils-de-robert-sautier,-1,1,1,1,337 609 747 00015,-1,0,0
47,38485,e51bd09d7325713a,Pompes Funèbres et Marbrerie Becret,49.5703675,3.6273851,6 à 10 Boulevard Gras Brancourt,02000,758,Laon,02408,2,0323234830,Agence-Laon-1@DIGNITE.FR,,2020-10-23 10:11:56.488134,Dignité Funéraire,0,1,1,1,1,1,1,2015-07-17,2021-07-16,2015-02-163,-1,1,1,0,1,1,1,https://meilleures-pompes-funebres.com/02/laon/pompes-funebres-becret,-1,1,1,1,542 076 799 14925,-1,0,0
48,38486,9ba4b9c4530eb219,Pompes Funèbres Générales,49.5741726,3.6436608,66 rue de Manoise,02000,758,Laon,02408,2,0323230212,Agence-Laon-2@PFG.FR,,2020-10-23 10:11:56.615140,PFG Services Funéraires,0,1,0,1,1,1,1,2016-02-01,2022-01-31,2016-02-174,-1,1,1,0,1,1,1,https://meilleures-pompes-funebres.com/02/laon/pompes-funebres-generales-pfg,-1,1,1,1,542 076 799 01617,-1,0,0
49,38487,763a949c66631238,Pompes Funèbres VIGNON - Le Choix Funéraire,49.8401173,3.3008422,12 place Carnot,02100,1318,Saint-Quentin,02691,1,0323086444,pompes-funebres-vignon@wanadoo.fr,,2020-10-23 10:11:56.733204,Le Choix Funéraire,0,1,1,1,1,1,1,2014-05-02,2020-05-01,02/02/2014,-1,1,1,1,1,1,1,https://meilleures-pompes-funebres.com/02/saint-quentin/pompes-funebres-associes-vignon,-1,1,1,-1,349 244 640 00018,-1,0,0
50,38488,4f9a37cd2e0737e5,Pompes Funèbres HURIER JONCOURT -Le Choix Funéraire,49.8572563,3.2897146,110 rue Georges Pompidou,02100,1318,Saint-Quentin,02691,1,0323081607,,,2020-10-23 10:11:56.857306,Le Choix Funéraire,0,1,0,1,1,1,1,2014-05-05,2020-05-04,16/02/2014,1,1,1,0,1,1,1,https://meilleures-pompes-funebres.com/02/saint-quentin/pompes-funebres-hurier-joncourt,-1,1,1,-1,349 244 640 00034,-1,0,0
51,38489,6220a464933a8134,Pompes Funèbres LANDOUZY,49.8569691,3.2894281,108 rue Georges Pompidou et 6 rue Edmond Rostand,02100,1318,Saint-Quentin,02691,1,0323081683,,,2020-10-23 10:11:56.986036,,0,1,0,1,1,1,1,2018-10-16,2024-10-15,2018.02.17,-1,-1,1,-1,1,1,1,https://meilleures-pompes-funebres.com/02/saint-quentin/art-et-marbrerie-landouzy,-1,-1,-1,1,351 938 683 00015,-1,0,0
52,38490,155a5fc5071393b4,Pompes Funèbres Marbrerie Martine Palet,49.8415456,3.3125155,35 chemin d'Harly,02100,1318,Saint-Quentin,02691,1,0323684725,,,2020-10-23 10:11:57.105281,,0,1,0,1,1,1,1,2018-10-11,2024-10-10,2018-02-29,-1,-1,1,-1,1,1,1,https://meilleures-pompes-funebres.com/02/saint-quentin/pompes-funebres-martine-palet,-1,-1,-1,1,403 439 193 00018,-1,0,0
53,38491,128834c064012085,SARL PL THANATOPRAXIE,49.8357217,3.2972342,19 rue Roland Dorgelès,02100,1318,Saint-Quentin,02691,1,0323653729,,,2020-10-23 10:11:57.229056,,1,0,0,1,0,0,1,2010-07-29,2024-01-17,2010-02-153,-1,-1,-1,-1,-1,-1,-1,,-1,-1,-1,-1,,-1,2,8
54,38492,52cb516aec09038a,Pompes Funèbres Générales,49.8464608,3.2867549,35 place de l'hôtel de ville,02100,1318,Saint-Quentin,02691,1,0323623527,Agence-SaintQuentin-1@PFG.FR,,2020-10-23 10:11:57.343126,PFG Services Funéraires,0,1,0,1,1,1,1,2016-02-01,2022-01-31,2016-02-173,-1,1,1,0,1,1,1,https://meilleures-pompes-funebres.com/02/saint-quentin/pompes-funebres-generales-pfg,-1,1,1,1,542 076 799 12028,-1,0,0
55,38493,1156dc939ea2b508,Pompes funèbres Richet Massin - Dignité Funéraire,49.8394626,3.2814925,1 Rampe St-Prix (Quai du vieux port),02100,1318,Saint-Quentin,02691,1,0323680827,Agence-SaintQuentin-2@DIGNITE.FR,,2020-10-23 10:11:57.460867,Dignité Funéraire,0,1,1,1,1,1,1,2012-12-03,2018-12-02,2006-02-109,-1,1,1,0,1,1,1,https://meilleures-pompes-funebres.com/02/saint-quentin/pompes-funebres-richet-massin,-1,1,1,-1,349 764 795 00051,-1,0,0
56,38494,c7716ced60d34d8c,Pompes funèbres et marbrerie In MEMORIS,49.851067,3.2640772,2 rue Charles Limé ZAC La Vallee,02100,1318,Saint-Quentin,02691,1,0323050501,Agence-SaintQuentin-3@pompes-funebres-in-memoris.fr,,2020-10-23 10:11:57.593165,,1,1,0,1,1,1,1,2012-12-03,2018-12-02,2012-02-111,-1,0,1,0,1,1,1,,-1,1,1,-1,,-1,0,0
57,38495,36dea3b84558e60b,Pompes Funèbres Kreb,49.9852588,3.4595027,"1, rue Olivier Deguise",02110,1384,Bohain-en-Vermandois,02095,2,0323070888,,,2020-10-23 10:11:57.717618,,0,1,1,1,1,1,1,2018-02-26,2024-02-26,2018-02-126,-1,-1,1,-1,1,1,0,https://meilleures-pompes-funebres.com/02/bohain-en-vermandois/pompes-funebres-kreb,1,1,1,1,,-1,0,0
58,38496,de5cb4df3bba2ef3,Pompes Funèbres Et Marbrerie Du Vermandois,49.986519,3.4491721,"76, rue Jean Jaurès",02110,1384,Bohain-en-Vermandois,02095,2,0323071919,,,2020-10-23 10:11:57.840682,,0,1,1,1,1,1,1,2012-11-20,2018-11-19,2012-02-139,1,1,1,-1,1,1,0,https://meilleures-pompes-funebres.com/02/bohain-en-vermandois/pompes-funebres-et-marbrerie-du-vermandois,1,1,1,1,421 333 675 00013,-1,0,0
59,38497,069113b55d2a2a76,Pompes Funèbres Marbrerie ST MEDARD - Le Choix Funéraire,49.8993817,3.6324148,178 rue Saint-Médard,02120,1137,Guise,02361,2,0323610629,,,2020-10-23 10:11:57.972996,Le Choix Funéraire,0,1,1,1,1,1,1,2016-12-21,2022-12-21,2016-02-67,-1,1,1,-1,1,1,0,https://meilleures-pompes-funebres.com/02/guise/pompes-funebres-saint-medard,1,1,1,1,,-1,0,0
60,38498,7e6b14911817d213,Pompes Funèbres Carlier Thierry,49.8236955,3.7030975,2 rue du Général de Gaulle,02120,1047,Sains-Richaumont,02668,2,0323609929,,,2020-10-23 10:11:58.094201,,0,1,0,1,1,1,1,2014-05-23,2020-05-22,2014-02-32,-1,-1,1,-1,1,1,0,https://meilleures-pompes-funebres.com/02/sains-richaumont/pompes-funebres-carlier-thierry,-1,-1,-1,-1,,-1,0,0
61,38499,4e89f41f802c8320,SAS « Pompes funèbres marbrerie Saint-Médard »,49.8993817,3.6324148,178 rue Saint-Médard,02120,1137,Guise,02361,2,0323610629,marbreriestmedard@wanadoofr,,2020-10-23 10:11:58.206189,,1,1,0,1,1,1,1,2018-07-20,2024-07-19,2018-02-197,-1,-1,-1,-1,-1,-1,-1,,-1,-1,-1,-1,,-1,2,1
62,38500,2653f5518b0c20fa,Pompes Funèbres KETELE,49.9014162,3.6276221,31 boulevard Péquereau,02120,1137,Guise,02361,2,0323610551,veronique.ketele@orange.fr,,2020-10-23 10:11:58.333330,,0,1,1,1,1,1,1,2016-03-24,2019-01-31,12/02/2013,-1,-1,1,-1,1,1,0,https://meilleures-pompes-funebres.com/02/guise/pompes-funebres-ketele,1,1,1,1,586 680 282 00058,-1,0,0
63,38501,516b30349e025276,M. Chistophe THIEFAINE,49.9067248,3.72841,3 chemin de Proisy,02120,1005,Malzy,02455,2,0617335529,,,2020-10-23 10:11:58.487154,,0,0,0,0,0,0,0,2018-01-09,2019-01-08,2018-02-194,-1,-1,-1,-1,-1,-1,-1,,-1,-1,-1,-1,,-1,1,0
64,38502,91799aa3f0b168d8,Pompes Funèbres FEVAL,49.2024338,3.5110726,2 avenue de la gare,02130,1350,Fère-en-Tardenois,02305,2,0323827284,pf.feval@orange.fr,,2020-10-23 10:11:58.614328,,0,1,1,1,1,1,1,,,2019-02-1,-1,-1,-1,-1,1,1,0,https://meilleures-pompes-funebres.com/02/fere-en-tardenois/pompes-funebres-feval-j-jp,-1,-1,-1,-1,,-1,0,0
65,38503,4ec17e41686f6ee0,Pompes Funèbres Cras,49.8335599,3.9052008,26 rue Raoul de Coucy,02140,960,Vervins,02789,2,0323982065,contact@pf-cras.fr,,2020-10-23 10:11:58.738556,,0,0,0,0,0,0,0,2013-02-15,2019-02-14,2013-02-158,-1,-1,1,-1,1,1,0,https://meilleures-pompes-funebres.com/02/vervins/pompes-funebres-cras,1,1,1,1,485 053 003 00011,-1,0,0
66,38504,f456295b8c43b937,SARL « Pompes funèbres CRAS »,49.8335599,3.9052008,26 rue Raoul de Coucy,02140,960,Vervins,02789,2,0323982065,,,2020-10-23 10:11:58.852859,,0,1,1,1,1,1,1,2013-02-15,2019-02-14,,-1,-1,-1,-1,-1,-1,-1,,-1,-1,-1,-1,,-1,2,1
67,38505,e95aa70da7525e45,Pompes funèbres Péchenard,49.4324986,3.9727269,39 rue Franklin Roosevelt,02190,636,Guignicourt,02360,3,0323797041,,,2020-10-23 10:11:58.976265,,0,1,0,0,1,1,0,2018-06-18,2024-06-18,2018-02-196,-1,-1,-1,-1,-1,-1,-1,,-1,-1,-1,-1,,-1,1,0
68,38506,b2156215ae81a6a9,Pompes Funèbres Patrick Moitié,49.3672397,3.3330665,34 Route de Fère-en-Tardenois,02200,1091,Belleu,02064,2,0323595050,patrick-moitie@wanadoo.fr,,2020-10-23 10:11:59.099299,FUNERIS,0,0,0,0,0,0,0,2013-05-06,2022-05-17,2013-02 178,-1,1,-1,-1,1,1,1,,-1,1,-1,1,,-1,0,0
69,38507,9586fe159f6b6a99,Pompes Funèbres Générales,49.3564591,3.3227536,90 route de Château-Thierry,02200,1095,Courmelles,02226,2,0323753200,Agence-Courmelles-1@PFG.FR,,2020-10-23 10:11:59.210153,PFG Services Funéraires,0,1,1,1,1,1,1,2015-07-20,2021-07-19,2015-02-165,-1,1,-1,-1,1,1,1,,-1,-1,-1,-1,,-1,0,0
70,38508,db5703a0636cd7c4,Pompes Funèbres et Marbrerie Lamarre - Dignité Funéraire,49.3814762,3.3106016,56 avenue de Compiègne,02200,666,Soissons,02722,2,0323530453,Agence-Soissons-2@DIGNITE.FR,,2020-10-23 10:11:59.338294,Dignité Funéraire,0,1,1,1,1,1,1,2016-02-01,2022-01-31,2012-02-112,0,1,1,0,1,1,0,https://meilleures-pompes-funebres.com/02/soissons/pompes-funebres-alain-lamarre,0,1,1,1,542 076 799 18488,-1,0,0
71,38509,3dcfae45b195ddc0,La Maison des Obsèques - Pompes Funèbres Aide Funéraire - PFMA,49.3803557,3.3084394,57 avenue de Compiègne,02200,666,Soissons,02722,2,0323762274,soissons@lamaisondesobseques.fr,,2020-10-23 10:11:59.469315,La Maison des obsèques,0,1,0,1,1,1,1,2018-01-24,2024-01-23,2018-02-147,0,0,1,1,1,1,0,https://meilleures-pompes-funebres.com/02/soissons/la-maison-des-obseques-pfma,0,0,0,1,814 500 757 00095,-1,0,0
72,38510,03e46e77d66d2e5e,Pompes Funèbres Roc-Eclerc,49.3733174,3.3333475,35 bis avenue du Général de Gaulle,02200,666,Soissons,02722,2,0326061999,,,2020-10-23 10:11:59.578192,Roc Eclerc,0,1,0,1,1,1,1,2018-10-18,2019-10-17,2018-02-193,0,1,0,0,1,1,0,,0,1,1,1,388 796 526 00316,-1,0,0
73,38511,b09c8e1569a5a15d,Ambulances Favier,49.39166,3.338791,6 rue des Ciseleurs – ZAC des entrepôts,02200,666,Soissons,02722,2,0323533425,secretariat02@favier.fr,,2020-10-23 10:11:59.714233,,0,0,0,0,0,0,1,2018-10-29,2024-10-28,2018-02-164,0,1,1,0,0,0,-1,,0,0,0,1,503 304 107 00033,-1,2,15
74,38512,d79df3a31a3e469c,Pompes Funèbres Marbrerie Defruit,49.381341,3.3121795,47 avenue de Compiègne,02200,666,Soissons,02722,2,0323532518,,,2020-10-23 10:11:59.839247,,0,1,1,1,1,1,1,2012-10-19,2018-10-18,2012-02-183,0,1,0,0,1,1,1,https://meilleures-pompes-funebres.com/02/soissons/pompes-funebres-marbrerie-defruit,0,0,0,1,408 618 734 00011,-1,0,0
75,38513,af0a6bd932f2b681,Pompes Funèbres Patrick Moitié,49.3456174,3.5404407,Rte de Vieil Arcy lieu dit l’étang de l’Amouré,02220,1065,Braine,02110,2,0323741174,patrick-moitie@wanadoo.fr,,2020-10-23 10:11:59.965500,FUNERIS,0,0,0,0,0,0,0,,2022-04-18,23/02/2010,-1,1,-1,-1,1,1,0,,-1,1,1,1,,-1,0,0
76,38514,c776d95be3081c52,Pompes Funèbres Floquet,49.7966085,3.4603538,22 rue Condorcet,02240,1046,Ribemont,02648,2,0323637279,pf.floquet@oranger.fr,,2020-10-23 10:12:00.151608,,0,1,1,1,1,1,1,2018-06-15,2023-06-15,2018-02-129,-1,1,1,-1,1,1,0,https://meilleures-pompes-funebres.com/02/ribemont/pompes-funebres-floquet,1,1,1,1,325 441 814 00044,-1,0,0
77,38515,d09da8b2d5c9a4da,M. Yannick LECAS,49.7924569,3.5326891,22 rue du Batis,02240,1344,Pleine-Selve,02605,3,0323638146,,,2020-10-23 10:12:00.298390,,0,0,0,0,0,1,0,2012-05-23,2018-05-22,2012-02-137,-1,-1,-1,-1,-1,-1,-1,,-1,-1,-1,-1,,-1,0,0
78,38516,e2b684d04fc414b6,Pompes Funèbres Lagasse,49.9756528,3.9163709,2 rue Valentine Soufflet,02260,1202,La Capelle,02141,2,0979332103,pflagasse@orange.fr,,2020-10-23 10:12:00.429562,,0,1,1,1,1,1,1,2016-03-24,2019-01-31,2013-02-155,-1,-1,1,-1,1,1,1,https://meilleures-pompes-funebres.com/02/la-capelle/pompes-funebres-lagasse,1,-1,-1,-1,586 680 282 00090,-1,0,0
79,38517,6d0d71e674f444fa,Pompes Funèbres Déré,49.5846649,3.2393218,134 rue de la République,02300,1413,Autreville,02041,3,0323520413,,,2020-10-23 10:12:00.576220,,0,1,1,1,1,1,1,2017-06-06,2023-06-05,2017-02-88,-1,-1,-1,-1,-1,-1,-1,,-1,-1,-1,-1,,-1,0,0
80,38518,83caeab32afbab7c,Pompes Funèbres Générales,49.6223593,3.2275249,"157-159, rue Pasteur",02300,725,Chauny,02173,2,0323391290,Agence-Chauny-1@PFG.FR,,2020-10-23 10:12:00.709449,PFG Services Funéraires,0,1,1,1,1,1,1,2015-10-07,2021-10-06,2015-02-102,-1,0,1,0,1,1,1,https://meilleures-pompes-funebres.com/02/chauny/pfg-pompes-funebres-generales-chauny-rue-pasteur,-1,1,1,1,542 076 799 11244,-1,0,0
81,38519,e0b587df5e3fb94c,Ambulances Dagnicourt,49.6269956,3.2202234,5 rue Alexandre Fourny 02300 Chauny,02300,725,Chauny,02173,2,0323406000,infos[@]ambulancesdagnicourt.com,,2020-10-23 10:12:00.831184,,0,0,0,1,0,0,1,2010-07-21,2021-01-12,2010-02-149,-1,1,1,0,0,0,-1,,-1,0,0,1,433 864 352 00045,-1,0,0
82,38520,0a7153bdb8c77671,Pompes Funèbres Marbrerie André,49.6111784,3.2209963,"1, rue Anatole France",02300,725,Chauny,02173,2,0323520737,marbrerie.andre2@wanadoo.fr,,2020-10-23 10:12:00.974472,,0,1,1,0,0,1,0,2014-07-08,2020-07-07,2014-02-175,-1,1,1,0,1,1,1,https://meilleures-pompes-funebres.com/02/chauny/pompes-funebres-marbrerie-andre,-1,1,1,1,877 320 093 00025,-1,0,0
83,38521,a9283a13523a639b,Marbrerie Godefroy Christian,49.6203908,3.2033313,85 boulevard Bad Kostritz,02300,725,Chauny,02173,2,0323395126,,,2020-10-23 10:12:01.110203,,0,0,0,0,0,1,0,2015-12-17,2021-12-16,2015-02-188,-1,-1,1,-1,-1,1,1,,-1,-1,-1,-1,,-1,0,0
84,38522,02614f1a56bf6810,M. Patrick RAGOT,49.5144353,3.2689527,5 rue du mont de Guny,02300,1053,Guny,02363,3,0323527262,,,2020-10-23 10:12:01.236152,,0,1,0,1,1,1,1,2013-04-26,2019-04-25,2013-02-91,-1,-1,-1,-1,-1,-1,-1,,-1,-1,-1,-1,,-1,2,0
85,38523,151008c1e3ecc8de,Art Funeraire Nivesse - Malard,48.9765967,3.2840254,"89, rue Emile Morlot",02310,1214,Charly-sur-Marne,02163,2,0323820161,contact@pf-nivesse.com,,2020-10-23 10:12:01.371491,FUNÉPLUS,0,1,1,1,1,1,1,2015-06-10,2021-06-09,2015-02-170,1,1,1,-1,1,1,1,https://meilleures-pompes-funebres.com/02/charly-sur-marne/art-funeraire-nivesse-malard,-1,1,1,1,,-1,0,0
86,38524,df9c00db6e2d1d6d,"l’E.U,R,L « TAXI ALAIN »",49.0121136,3.2703299,8 rue de la Cavette,02310,1322,Domptin,02268,3,0323704585,,,2020-10-23 10:12:01.543443,,0,0,0,0,0,0,0,2018-01-24,2019-01-23,2018-02-195,-1,-1,-1,-1,-1,-1,-1,,-1,-1,-1,-1,,-1,1,0
87,38525,697b43e313e66b1a,Pompes Funèbres Et Marbrerie François Guibert,49.4842234,3.4515834,28 bis rue de la Vendée,02320,1311,Pinon,02602,2,0323801176,pfguibertfrancois02320@gmail.com,,2020-10-23 10:12:01.705534,,0,1,0,1,1,1,1,2018-06-18,2024-06-18,2018-02-96,-1,-1,1,-1,1,1,0,https://meilleures-pompes-funebres.com/02/pinon/pompes-funebres-guibert-francois,-1,-1,-1,-1,,-1,0,0
88,38526,6ae3123dd01a7eab,Marbrerie BENOIT,49.004475,3.562959,Zone artisanale de la Dhuys,02330,737,Condé-en-Brie,02209,2,0323820282,,,2020-10-23 10:12:01.837048,,0,1,0,0,1,1,0,2016-12-12,2022-12-12,12/12/2016,-1,-1,-1,-1,-1,1,0,,-1,-1,-1,-1,,-1,0,0
89,38527,54e8802f0a51bb97,M. Martin APPERT,49.627764,4.0250917,17 rue Coquebert,02340,1093,Dizy-le-Gros,02264,3,0323213009,,,2020-10-23 10:12:01.948865,,0,1,0,1,1,1,1,2016-07-01,2022-04-01,2016-02-49,-1,-1,-1,-1,-1,-1,-1,,-1,-1,-1,-1,,-1,1,0
90,38528,df8ffb26e6f938ad,Pompes Funèbres Jean-Marc COET,49.6975356,4.0153372,26 rue de la gare,02340,1251,Montcornet,02502,3,0323213150,,,2020-10-23 10:12:02.063924,,0,1,0,1,1,1,1,2015-09-11,2021-09-10,2015-02-168,-1,-1,-1,-1,-1,-1,-1,,-1,-1,-1,-1,,-1,1,0
91,38529,3ab3e0265a0af12a,Pompes Funèbres Jean-Marc COET,49.6961629,4.0144448,3 rue Neuve,02340,1251,Montcornet,02502,3,0323202174,,,2020-10-23 10:12:02.225401,,0,1,1,1,1,1,1,2015-09-11,2021-09-10,2015-02-169,-1,-1,-1,-1,-1,-1,-1,,-1,-1,-1,-1,,-1,0,0
92,38530,3cb3c8cb5c35f653,Pompes Funèbres Beudy,49.709559,4.1281118,22 rue du Général de Gaulle,02360,1004,Rozoy-sur-Serre,02666,2,0323985359,,,2020-10-23 10:12:02.349058,,0,1,0,1,1,1,1,2018-02-01,2024-01-31,2018-02-141,-1,1,0,-1,1,1,0,,-1,-1,-1,-1,,-1,0,0
93,38531,82bf7bdf27c6a85a,Centre Funéraire Marchetti - Le Choix Funéraire,49.0354098,3.3852724,"15, avenue Gustave Eiffel",02400,1215,Château-Thierry,02168,2,0323842121,marchetti@orange.fr,,2020-10-23 10:12:02.490493,Le Choix Funéraire,0,1,1,1,1,1,1,,,08/02/2014,-1,1,1,0,1,1,1,https://meilleures-pompes-funebres.com/02/chateau-thierry/centre-funeraire-marchetti,1,1,1,1,,-1,0,0
94,38532,72a0ad1bb77b0d4f,Pompes Funèbres Roc-Eclerc,49.0391006,3.384746,"59, avenue d’Essomes",02400,1215,Château-Thierry,02168,2,0323830383,,,2020-10-23 10:12:02.601023,Roc Eclerc,0,1,1,1,1,1,1,2018-07-27,2024-07-26,2018-02-162,-1,1,1,0,1,1,1,,1,1,1,1,,-1,0,0
95,38533,cbe58b1fd8c486db,"""SARL """"Ambulances DAGNICOURT""""""",49.6001789,3.3615064,19 rue Charles Germain,02410,622,Saint-Gobain,02680,3,0323528036,,,2020-10-23 10:12:02.700072,,0,0,0,1,0,0,1,2010-07-21,2024-01-12,2010-02-150,-1,-1,-1,-1,-1,-1,-1,,-1,-1,-1,-1,,-1,2,0
96,38534,d20727c0a48ff13d,Pompes Funèbres Debureaux Dossin,49.9618005,3.1826223,8 bis rue de Cologne,02420,708,Hargicourt,02370,2,0323095883,debureaux@orange.fr,,2020-10-23 10:12:02.831149,,0,1,1,1,1,1,1,,,2019-02-192,-1,1,1,-1,1,1,0,https://meilleures-pompes-funebres.com/02/hargicourt/debureaux-dossin,-1,-1,-1,-1,831 109 822 00013,-1,0,0
97,38535,0477c0623f1f255a,S.A.R.L. « DESSON ET FILS »,49.9103645,4.0661491,290 rue de la Plaine,02500,1329,Buire,02134,3,0323584638,,,2020-10-23 10:12:02.999012,,0,0,0,0,0,0,0,2015-06-26,2021-06-25,10/02/2015,-1,-1,-1,-1,-1,-1,-1,,-1,-1,-1,-1,,-1,1,0
98,38536,6695d39874c7bc95,Pompes Funèbres Desson et Fils,49.9204064,4.0838443,76-78 rue Charles de Gaulle,02500,1018,Hirson,02381,2,0323584638,desson-et-fils@orange.fr,,2020-10-23 10:12:03.118909,,1,1,1,0,0,0,0,2015-06-26,2021-06-25,10/02/2015,1,1,0,0,-1,1,1,https://meilleures-pompes-funebres.com/02/hirson/desson-et-fils,0,0,0,1,412 035 545 00034,-1,0,0
99,38537,a94f6a9ac8df33a9,Pompes Funèbres Marbrerie Thomas-Famechon,49.9964277,3.659589,181 rue du Général de Gaulle,02510,873,Étreux,02298,2,0323605674,marbreriefamechon@orangefr,,2020-10-23 10:12:03.255977,,1,1,1,1,1,1,1,,,2020-02-200,-1,1,0,0,1,1,1,https://meilleures-pompes-funebres.com/02/etreux/pompes-funebres-famechon,0,0,0,1,444 728 554 00031,-1,0,0
100,38538,82f1eecb55925cfa,Pompes Funèbres Petitniot,49.7123226,3.1869383,105 rue André Brûlé,02520,904,Flavy-le-Martel,02315,2,0323525195,,,2020-10-23 10:12:03.398945,,0,1,0,1,1,1,1,2015-08-24,2021-08-23,2015-02-166,-1,-1,-1,-1,1,1,-1,,-1,-1,-1,-1,,-1,0,0
101,38540,9c3e3aa649dc00bd,Pompes Funèbres des 4 Vallées,49.2536112,3.0905711,2 Rue du Général Leclerc,02600,1379,Villers-Cotterêts,02810,2,0323960298,mouligneauxpf@orange.fr,,2020-10-23 10:12:03.623603,,-1,1,0,1,1,1,1,2014-05-06,2020-05-05,15/02/2014,-1,1,0,0,1,1,-1,https://meilleures-pompes-funebres.com/02/villers-cotterets/les-pompes-funebres-des-4-vallees,0,0,0,-1,405 187 675 00021,-1,0,0
102,38541,d5349b02af5a7e75,Pompes Funèbres Générales,49.2542058,3.0914046,6 rue du Général Mangin,02600,1379,Villers-Cotterêts,02810,2,0323961421,Agence-VillersCotterets-1@PFG.FR,,2020-10-23 10:12:03.762928,PFG Services Funéraires,0,1,0,1,1,1,1,2015-07-22,2021-07-21,2015-02-101,1,1,0,0,1,1,1,https://meilleures-pompes-funebres.com/02/villers-cotterets/pfg-pompes-funebres-generales,0,1,1,1,542 076 799 11335,-1,0,0
103,38542,eaa37488fe9b6fc1,"""SARL """"Patrick FEREY THANATOPRAXIE""""""",49.052279,3.5213571,"46, rue de Châlons",02650,854,Crézancy,02239,3,0681050499,,,2020-10-23 10:12:03.878970,,1,0,0,0,0,0,0,2012-12-10,2018-12-09,2012-02-157,-1,-1,-1,-1,-1,-1,-1,,-1,-1,-1,-1,,-1,1,0
104,38543,30f8bdeb085339d7,Pompes Funèbres André,49.6560443,3.3071013,10 Place du Marché,02700,3,Tergnier,02738,2,0323579888,,,2020-10-23 10:12:03.984247,,0,0,0,0,0,0,0,,,2020-02-125,0,1,1,0,1,1,1,https://meilleures-pompes-funebres.com/02/tergnier/pompes-funebres-andre,0,1,1,1,877 320 093 00090,-1,0,0
105,38544,bbe64cb45c77b367,Pompes Funèbres Soyeux,49.6547102,3.2926805,7 avenue du Général de Gaulle,02700,3,Tergnier,02738,2,0323570207,thierry.coquisart@orange.fr,,2020-10-23 10:12:04.107644,,1,1,1,1,1,1,1,2015-08-27,2021-08-26,2015-02-190,1,1,1,0,1,1,0,https://meilleures-pompes-funebres.com/02/tergnier/pompes-funebres-soyeux,0,1,0,1,351 875 463 00017,-1,0,0
106,38545,5706f46ca1575296,La société des crématoriums de France,49.6576141,3.3174437,1 rue des fusillés,02700,3,Tergnier,02738,2,0328492929,aisne@crematoriumsfr,,2020-10-23 10:12:04.200091,,0,0,0,0,0,0,0,2018-12-07,2019-12-06,2018-02-198,-1,-1,-1,-1,-1,-1,-1,,-1,-1,-1,-1,,-1,2,3
107,38546,af08e768ac12545d,PFG - Pompes Funèbres Générales,49.6552355,3.2915655,33 rue des 4 fils Paul Doumer,02700,3,Tergnier,02738,2,0323388602,,,2020-10-23 10:12:04.316937,,0,1,0,1,1,1,1,2012-10-15,2018-10-14,2012-02-182,-1,-1,-1,-1,-1,-1,-1,,-1,-1,-1,-1,,-1,2,4
108,38547,ea3d72074d9b5241,SA OGF – 31 rue de Cambrai – 75019 PARIS,49.8605329,3.213618,route d'Attilly – RD 686,02760,2,Holnon,02382,2,0130608400,,,2020-10-23 10:12:04.460054,,0,0,0,0,0,0,0,2018-06-26,2024-06-25,2018-02-186,-1,-1,-1,-1,-1,-1,-1,,-1,-1,-1,-1,,-1,2,11
109,38548,b075b2dcf261637d,SARL BERNASCONI,49.6520931,3.3811051,"41, rue Aristide Briand",02800,834,Charmes,02165,3,0323562307,,,2020-10-23 10:12:04.572995,,0,1,0,1,1,1,1,2017-03-23,2023-03-22,2017-02-135,-1,-1,-1,-1,-1,-1,-1,,-1,-1,-1,-1,,-1,1,0
110,38549,3f2c89a5bfc6838a,"""SARL """"Ambulances DAGNICOURT""""""",49.6607449,3.3662426,6 rue de la Comédie,02800,798,La Fère,02304,2,0323562224,,,2020-10-23 10:12:04.682905,,0,0,0,1,0,0,1,2010-07-21,2024-01-12,2010-02-148,-1,-1,-1,-1,-1,-1,-1,,-1,-1,-1,-1,,-1,2,0
111,38550,06ddbbbdb92c31d5,Pompes Funèbres André,49.6634749,3.3610746,52 rue du Bourget,02800,798,La Fère,02304,2,0323520737,,,2020-10-23 10:12:04.804909,,0,0,0,0,0,0,0,2014-07-09,2020-07-09,2014-02-187,-1,1,1,-1,1,1,0,https://meilleures-pompes-funebres.com/02/la-fere/marbrerie-funeraire-andre,1,1,1,1,877 320 093 00108,-1,0,0
112,38551,a92a60d4eed534a9,Pompes Funèbres Evrard,49.5351301,3.8319331,2 rue de Saint-Erme,02820,632,Montaigu,02498,2,0323207614,,,2020-10-23 10:12:04.945088,,0,1,1,1,1,1,1,2018-12-06,2024-12-05,27/02/2018,-1,-1,-1,-1,1,1,0,https://meilleures-pompes-funebres.com/02/montaigu/pompes-funebres-evrard,-1,-1,-1,-1,892 144 775 00012,-1,0,0
113,38552,87cff9a57f23a5f5,Pompes Funèbres Moulinoises,46.5652261,3.3282124,"15, rue Mathieu de Dombasle",03000,1698,Moulins,03190,2,0470209060,,,2020-10-23 10:12:05.076113,,0,0,0,0,1,1,0,,,,1,0,1,0,1,1,1,,0,0,0,1,384 621 520 00038,-1,0,0
114,38553,7d81028b3aed81cc,Pompes Funèbres Générales,46.5734814,3.3268442,"100, rue de Paris",03000,1698,Moulins,03190,2,0470208790,Agence-Moulins-1@PFG.FR,,2020-10-23 10:12:05.182057,PFG Services Funéraires,0,1,1,1,1,1,1,,,,0,0,1,0,1,1,0,,0,1,1,1,542 076 799 01542,-1,0,0
115,38554,d025ae15a2cd7c32,SARL FUNA – Pompes Funèbres KROST - VITURAT,46.5652261,3.3282124,"15, rue M. de Dombasle",03000,1698,Moulins,03190,2,0470438572,,,2020-10-23 10:12:05.283013,,1,1,0,1,1,1,1,,,,-1,-1,-1,-1,-1,-1,-1,,-1,-1,-1,-1,,-1,2,12
116,38555,075bf3353afaf5d7,Pompes Funèbres Krost,46.5696899,3.32503,"7, avenue du Gal. de Gaulle",03000,1698,Moulins,03190,2,0470209887,pf.krost@funeservice.fr,,2020-10-23 10:12:05.386028,,0,1,1,1,1,1,1,,,13.03.326,0,1,1,0,1,1,1,https://meilleures-pompes-funebres.com/03/moulins/pompes-funebres-krost,0,1,0,1,483 622 262 00044,-1,0,0
117,38556,710591ee658e34c9,Marbrerie André,46.3612731,2.5998488,44 Rue Eugène Sue,03100,4,Montluçon,03185,1,0470023180,,,2020-10-23 10:12:05.503968,,0,1,0,1,1,1,0,,,,0,0,1,0,1,1,1,https://meilleures-pompes-funebres.com/03/montlucon/marbrerie-andre,-1,0,0,1,324 652 486 00014,-1,0,0
118,38557,c4576ef3b66f494f,Pompes Funèbres Roc-Eclerc,46.3458229,2.5972922,"43, Avenue de la République",03100,4,Montluçon,03185,1,0470038657,,,2020-10-23 10:12:05.633041,Roc Eclerc,1,1,1,1,1,1,1,,,,0,1,1,0,1,1,0,https://meilleures-pompes-funebres.com/03/montlucon/roc-eclerc-pompes-funebres-faucheron,0,1,1,1,351 363 270 00031,-1,0,0
119,38558,0dae86974df14425,MAISON FUNERAIRE – SAS 3 F,46.3428923,2.633989,"70, Rue Montplaisir",03100,4,Montluçon,03185,1,0470038657,,,2020-10-23 10:12:05.773310,,1,0,1,0,0,0,0,,,,-1,-1,-1,-1,-1,-1,-1,,-1,-1,-1,-1,,-1,2,2
120,38559,a86012949b49a3de,MAIRIE,46.3436974,2.6060968,"1, rue Conches",03100,4,Montluçon,03185,1,0470025500,,,2020-10-23 10:12:05.912913,,0,0,0,1,0,0,0,,,,-1,-1,-1,-1,-1,-1,-1,,-1,-1,-1,-1,,-1,2,5
121,38560,790b1bd0c62f1ce6,Pompes Funèbres et Marbrerie Provost,46.3439306,2.6129886,"46, avenue du 8 mai 1945",03100,4,Montluçon,03185,1,0470020808,Agence-Montlucon-2@DIGNITE.FR,,2020-10-23 10:12:06.036063,Dignité Funéraire,0,1,0,1,1,1,1,,,,0,1,1,0,1,1,0,,0,1,1,1,542 076 799 27943,-1,0,0
122,38561,dedc77a23ea92492,Pompes Funèbres Beuze,46.349343,2.5939058,178 avenue de la République,03100,4,Montluçon,03185,1,0555650505,beuzefuneraire@gmail.com,,2020-10-23 10:12:06.138910,,1,1,0,1,1,1,0,,,16-18-392,0,1,1,0,1,0,-1,,0,1,1,1,345 041 180 00109,-1,0,0
123,38562,ddcec8973ef8d7bd,MAIRIE,46.1881194,3.2730933,"1, place de la Mairie",03110,1663,Broût-Vernet,03043,3,0470582123,,,2020-10-23 10:12:06.256572,,0,0,0,0,0,1,0,,,,-1,-1,-1,-1,-1,-1,-1,,-1,-1,-1,-1,,-1,2,5
124,38563,1823d147a431aaeb,SPINDLLER Daniel,46.263374,3.732423,Bâtiment 7 01-04-2021 La Goutte Simon,03120,1422,Andelaroche,03004,3,0470552182,,,2020-10-23 10:12:06.366081,,0,0,0,0,0,1,0,,,,-1,-1,-1,-1,-1,-1,-1,,-1,-1,-1,-1,,-1,1,0
125,38564,a06deb142b3486a2,La Maison des Obsèques - Pompes Funèbres Boussel,46.247963,3.6342622,37 Rue Président Roosevelt,03120,1654,Lapalisse,03138,2,0470992389,,,2020-10-23 10:12:06.497298,La Maison des obsèques,1,1,1,1,1,1,1,,,,-1,1,1,0,1,1,1,https://meilleures-pompes-funebres.com/03/lapalisse/pompes-funebres-boussel-au-val-de-besbre-sarl,-1,1,1,1,,-1,0,0
126,38565,3d61db8f2a655c25,Pompes Funèbres Dabrigeon - FUNERIS,46.2481207,3.6342581,"34, rue du président Roosevelt",03120,1654,Lapalisse,03138,2,0470931453,,,2020-10-23 10:12:06.592961,FUNERIS,1,1,1,1,1,1,1,,,,-1,1,1,1,1,1,1,https://meilleures-pompes-funebres.com/03/lapalisse/pompes-funebres-dabrigeon,-1,1,1,1,,-1,0,0
127,38566,5e5f7d36c69aba82,SFT DESMARD,46.2390592,3.6338499,"9, rue LOuis Charnet",03120,1654,Lapalisse,03138,2,0695834422,,,2020-10-23 10:12:06.706896,,0,0,0,0,0,1,0,,,,-1,-1,-1,-1,-1,-1,-1,,-1,-1,-1,-1,,-1,1,0
128,38567,69489ed54097a203,SARL « Au Val de Besbre » - BOUSSEL Sébastien,46.2431849,3.6358428,« Le Chatelier »,03120,1528,Saint-Prix,03257,3,0470992389,,,2020-10-23 10:12:06.812616,,0,0,1,0,0,0,0,,,,-1,-1,-1,-1,-1,-1,-1,,-1,-1,-1,-1,,-1,0,0
129,38568,f0204c98de3cd3bb,DEBORBE Marcel - Travaux agricoles,46.288827,3.603146,La Brosse,03120,1438,Servilly,03272,3,0470993206,,,2020-10-23 10:12:06.917076,,0,0,0,0,1,1,0,,,,-1,-1,-1,-1,-1,-1,-1,,-1,-1,-1,-1,,-1,1,0
130,38569,05efab35b46f42ee,AU VAL DE BESBRE,46.359557,3.794703,ZA LES BERNARDS,03130,1577,Le Donjon,03103,3,0470474559,,,2020-10-23 10:12:07.020271,,0,0,1,0,0,0,0,,,,-1,-1,-1,-1,-1,-1,-1,,-1,-1,-1,-1,,-1,1,0
131,38570,7113a3aed1455751,SARL ROUGIER Paysages - ROUGIER Raphaël,46.2038279,3.1384628,96 route de Senat,03140,1448,Taxat-Senat,03278,3,0470566351,,,2020-10-23 10:12:07.122107,,0,0,0,0,1,1,0,,,,-1,-1,-1,-1,-1,-1,-1,,-1,-1,-1,-1,,-1,1,0
132,38571,f5895e1081940651,Pompes Funèbres Meunier - FUNERIS,46.311947,3.402774,"1 et 3, rue Antoine Fayard",03150,1726,Varennes-sur-Allier,03298,2,0470450693,,,2020-10-23 10:12:07.221974,FUNERIS,1,1,1,1,1,1,1,,,,-1,1,1,-1,1,1,1,https://meilleures-pompes-funebres.com/03/varennes-sur-allier/pompes-funebres-meunier,-1,1,1,1,483 120 838 00030,-1,0,0
133,38572,d4119b69b15fd303,La Maison des Obsèques-Pompes Funèbres Boussel,46.2964992,3.4227778,ZA de la Feuillouse,03150,1726,Varennes-sur-Allier,03298,2,0470474559,,,2020-10-23 10:12:07.321136,La Maison des obsèques,0,1,1,1,1,1,1,,,,-1,1,0,0,1,1,1,,-1,1,1,1,,-1,0,0
134,38573,e60030ff8816894c,BERTRAND FRERES SARL,46.562925,2.955022,Les Butteaux,03160,1602,Ygrande,03320,3,,,,2020-10-23 10:12:07.498379,,0,0,0,0,0,1,0,,,,-1,-1,-1,-1,-1,-1,-1,,-1,-1,-1,-1,,-1,2,10
135,38574,5208d9c53432c046,Pompes Funèbres Lamarque Gaume Funéraires,46.5369562,2.6072772,"28, rue Paul Constans",03190,1460,Vallon-en-Sully,03297,2,0470068883,,,2020-10-23 10:12:07.601660,,0,1,0,1,1,1,1,,,,-1,1,1,0,1,1,1,,-1,1,1,1,,-1,0,0
136,38575,337881a321d1dd77,MAIRIE,46.124514,3.427619,Place de l’Hôtel de Ville,03200,5,Vichy,03310,2,0470301717,,,2020-10-23 10:12:07.709922,,0,0,0,0,0,1,0,,,,-1,-1,-1,-1,-1,-1,-1,,-1,-1,-1,-1,,-1,2,5
137,38576,d2455d26e6977029,Marbrerie Joseph Marc,46.1389784,3.4235805,"28, rue de Creuzier",03200,5,Vichy,03310,2,0470986347,,,2020-10-23 10:12:07.820282,FUNERIS,0,1,0,0,1,1,0,,,,1,0,0,0,1,1,1,,0,1,1,-1,483 120 838 00097,-1,0,0
138,38577,23c90022cdcdbc18,Ambulances Framont - Boufferet,46.1315165,3.4191871,59/61 Avenue Thermale,03200,5,Vichy,03310,2,0470974747,,,2020-10-23 10:12:07.929190,,0,0,0,0,1,1,1,,,,0,1,0,0,0,0,-1,,0,-1,-1,1,383 140 290 00057,-1,2,15
139,38578,c43802831be2a937,Pompes Funèbres Générales,46.1272419,3.4344069,"54, Boulevard Denière",03200,5,Vichy,03310,2,0470972424,Agence-Vichy-1@PFG.FR,,2020-10-23 10:12:08.037974,PFG Services Funéraires,1,1,1,1,1,1,1,,,,0,0,1,0,1,1,0,,0,1,1,1,542 076 799 04546,-1,0,0
140,38579,fb4d1a0f1c95f607,Pompes Funèbres Boussel,46.1302894,3.4233763,"53, rue J. Jaurès et 51, Bd. du Sichon",03200,5,Vichy,03310,2,0470977437,,,2020-10-23 10:12:08.145206,La Maison des obsèques,0,1,1,1,1,1,1,,,,0,0,1,1,1,1,0,,0,0,0,1,434 656 070 00076,-1,0,0
141,38580,73354ae1ca49d7b8,Pompes Funèbres Dabrigeon -FUNERIS,46.1370153,3.4251889,"19, rue des Bartins",03200,5,Vichy,03310,2,0470961414,,,2020-10-23 10:12:08.256704,FUNERIS,1,1,1,1,1,1,1,,,,1,0,1,0,1,1,0,https://meilleures-pompes-funebres.com/03/vichy/pompes-funebres-dabrigeon,0,1,1,1,323 458 745 00078,-1,0,0
142,38581,bf5456b728db662c,Pompes Funèbres Boussel,46.1249037,3.4348215,"1, Bd. Denière",03200,5,Vichy,03310,2,0470313379,,,2020-10-23 10:12:08.365153,La Maison des obsèques,0,1,1,1,1,1,1,,,,0,0,1,0,1,1,0,https://meilleures-pompes-funebres.com/03/vichy/pompes-funebres-boussel-0,0,0,0,1,434 656 070 00068,-1,0,0
143,38582,0541cd231f9189e6,POMPES FUNEBRES PACAUD PACAUD Thierry,46.4025047,3.6867266,Les Guettes,03220,1624,Saint-Léon,03240,2,0470474559,,,2020-10-23 10:12:08.468033,,0,1,1,1,1,1,1,,,,-1,-1,-1,-1,-1,-1,-1,,-1,-1,-1,-1,,-1,2,1
144,38583,dcad90efe721d3c9,Pompes Funèbres Barret Chabuel,46.4166991,3.0630188,12 Grande Rue,03240,1489,Le Montet,03183,2,0470671166,jm.chabuel@orange.fr,,2020-10-23 10:12:08.571213,,0,1,1,0,1,1,0,,,,-1,1,0,0,1,1,1,https://meilleures-pompes-funebres.com/03/le-montet/pompes-funebres-barret,-1,0,0,1,,-1,0,0
145,38584,4775722f41f125d2,Pompes Funèbres Vigouroux,46.212968,3.443185,Z. I. Le Coquet,03260,1666,Saint-Germain-des-Fossés,03236,2,0470580275,,,2020-10-23 10:12:08.726032,,1,1,1,1,1,1,1,,,,-1,1,1,0,1,1,1,https://meilleures-pompes-funebres.com/03/saint-germain-des-fosses/maison-vigouroux,-1,-1,-1,-1,,-1,0,0
146,38585,a40aaf277aae933e,Pompes Funèbres Viallet,46.523711,3.6859954,"361, rue de Sept Fons",03290,1729,Dompierre-sur-Besbre,03102,2,0470345089,contact@pompesfunebres-viallet.fr,,2020-10-23 10:12:08.857868,,0,1,1,1,1,1,1,,,,-1,1,1,0,1,1,1,https://meilleures-pompes-funebres.com/03/dompierre-sur-besbre/viallet-marbrier-funeraire-ets,-1,1,1,1,,-1,0,0
147,38586,704fe32c2d3170d0,Pompes Funèbres Générales,46.1361633,3.4599376,"19-21, rue du Champ Vincelet",03300,1679,Cusset,03095,2,0470310001,Agence-Cusset-1@PFG.FR,,2020-10-23 10:12:08.956835,PFG Services Funéraires,1,1,1,1,1,1,1,,,,-1,1,1,-1,1,1,1,,-1,1,1,-1,542 076 799 19718,-1,0,0
148,38587,5b3fa3724807fa33,Roc-Eclerc Pompes Funèbres Faucheron,46.1379266,3.436876,"105, Avenue Gilbert Roux",03300,1679,Cusset,03095,2,0470990990,,,2020-10-23 10:12:09.050001,Roc Eclerc,1,1,1,1,1,1,1,,,13.03.327,-1,1,1,-1,1,1,1,https://meilleures-pompes-funebres.com/03/cusset/roc-eclerc-pompes-funebres-faucheron,-1,-1,1,-1,,-1,0,0
149,38588,1d7790ac381729c1,Pompes Funèbres Marbrerie Auger Jérôme,46.7282989,2.9411288,33 Rue du Dr Vinatier,03320,1625,Lurcy-Lévis,03155,2,0470678034,auger.jerome@ambulancesauger.fr,,2020-10-23 10:12:09.152422,,1,1,1,1,1,1,1,,,,-1,1,1,1,1,1,1,https://meilleures-pompes-funebres.com/03/lurcy-levis/pompes-funebres-auger-pere-et-fils,-1,0,0,1,,-1,0,0
150,38589,0a579cf132313800,Ambulance Pompes Funèbres Privée Bellenaves 03,46.1990831,3.0796795,1 Rue des Forges,03330,1569,Bellenaves,03022,2,0470583404,atb03@outlook.fr,,2020-10-23 10:12:09.261714,,0,1,0,1,1,1,1,,,,-1,1,0,0,0,1,1,,-1,0,0,1,848 821 237 00015,-1,2,15
151,38590,5ded687b8bcde033,SARL BEAUDONNET Didier,46.1991904,3.0798075,"2, rue des Forges",03330,1569,Bellenaves,03022,2,0470583534,,,2020-10-23 10:12:09.369133,,0,1,1,1,1,1,1,,,,-1,-1,-1,-1,-1,-1,-1,,-1,-1,-1,-1,,-1,2,1
152,38591,07a4d1e9421e398d,SARL PERRIN-COLAS,46.1827921,2.936385,Le Bourg,03330,1545,Échassières,03108,3,0470904536,,,2020-10-23 10:12:09.482056,,0,0,0,0,0,1,0,,,,-1,-1,-1,-1,-1,-1,-1,,-1,-1,-1,-1,,-1,1,0
153,38592,2dd0613b8c141573,TRAVAUX PUBLICS - TRANSPORT MONTGIRAUD MONTGIRAUD Michel,46.223646,2.988679,Les Cabannes,03330,1736,Louroux-de-Bouble,03152,3,0470904637,,,2020-10-23 10:12:09.595036,,0,0,0,0,0,1,0,,,,-1,-1,-1,-1,-1,-1,-1,,-1,-1,-1,-1,,-1,1,0
154,38593,030de782acfb69db,Pompes Funèbres Viturat - ROC’ECLERC,46.4651106,3.4313758,"4 et 5, place de la Mairie",03340,1516,Neuilly-le-Réal,03197,3,0470438572,,,2020-10-23 10:12:09.734813,Roc Eclerc,1,1,0,1,1,1,1,,,,-1,1,0,0,1,1,1,,-1,-1,-1,-1,,-1,0,0
155,38594,15f023253763e1b1,Pompes Funèbres Cerilly Ambulance,46.6178187,2.8196986,"57, avenue Jean Jaurès",03350,1719,Cérilly,03048,2,0470675733,,,2020-10-23 10:12:09.849978,,0,1,1,1,1,1,1,,,,-1,1,-1,-1,-1,1,1,https://meilleures-pompes-funebres.com/03/cerilly/pompes-funebres-cerilly-ambulance,-1,-1,-1,1,,-1,0,0
156,38595,7110742224831fc5,DENIZON Jean-Luc,46.5862282,2.86338,La Bigarne,03350,1478,Theneuille,03282,3,0470675234,,,2020-10-23 10:12:09.965914,,0,0,0,0,0,1,0,,,,-1,-1,-1,-1,-1,-1,-1,,-1,-1,-1,-1,,-1,1,0
157,38596,3f009e9dac2e3663,Ainay Funéraire,46.7115511,2.6944675,"18, Av. V. Hugo",03360,1492,Ainay-le-Château,03003,2,0470078488,ainayfuneraire@gmail.com,,2020-10-23 10:12:10.101036,,0,1,0,1,1,1,1,,,,-1,1,-1,-1,1,1,1,https://meilleures-pompes-funebres.com/03/ainay-le-chateau/ainay-funeraire,-1,-1,-1,1,481 428 969 00010,-1,0,0
158,38597,238d80345e0fca0c,TULLIO et SANVOISIN - TULLIO Gérard,46.611142,2.608938,Les Landes,03360,1461,Meaulne,03168,3,0470069713,,,2020-10-23 10:12:10.195052,,0,0,0,0,0,1,0,,,,-1,-1,-1,-1,-1,-1,-1,,-1,-1,-1,-1,,-1,1,0
159,38598,0734eab9efe0540a,Pompes Funèbres Richard Lasseur,46.6598426,2.6940483,"6, place de l’Eglise",03360,1491,Saint-Bonnet-Tronçais,03221,2,0470060066,,,2020-10-23 10:12:10.298997,FUNÉPLUS,0,1,0,1,1,1,1,,,,-1,1,-1,-1,-1,1,1,,-1,-1,-1,1,481 148 534 00037,-1,0,0
160,38599,4ed90c1c8eff518c,HOUSSIERE ERIC,46.4457388,2.4601683,LE BREUX,03370,1532,Courçais,03088,3,0609674069,,,2020-10-23 10:12:10.424636,,0,0,0,0,0,1,0,,,,-1,-1,-1,-1,-1,-1,-1,,-1,-1,-1,-1,,-1,1,0
161,38600,8af703c95fb5e495,Pompes Funèbres et Marbrerie Provost,46.374175,2.4772267,"23, Grande Rue",03380,1440,Huriel,03128,2,0470286515,Agence-Huriel-1@dignite.fr,,2020-10-23 10:12:10.525301,Dignité Funéraire,0,1,1,1,1,1,1,,,,-1,1,1,0,1,1,1,https://meilleures-pompes-funebres.com/03/huriel/pompes-funebres-et-marbrerie-provost,-1,1,1,1,,-1,0,0
162,38601,b385a2f0d05e569e,Marbrerie Roy Franck,46.3283125,2.5158157,11 Rue du Clos de la Chapelle,03380,1601,Quinssaines,03212,2,0470518610,,,2020-10-23 10:12:10.615893,,0,0,1,0,0,1,0,,,,-1,0,0,0,1,1,1,,-1,0,0,1,,-1,0,0
163,38602,efce49731322ab39,MAIRIE,46.3490543,2.3396793,Place Saint-Julien,03380,1571,Treignat,03288,3,0470070014,,,2020-10-23 10:12:10.723929,,0,0,0,0,0,1,0,,,,-1,-1,-1,-1,-1,-1,-1,,-1,-1,-1,-1,,-1,2,10
164,38603,4a97bba7299ae0bf,PROVIDENCE-AUJEAN - SARL,46.3155608,2.9644083,"10, rue Pierre Arveuf",03390,1607,Montmarault,03186,2,0470076193,,,2020-10-23 10:12:10.833138,,0,0,0,0,0,1,0,,,,-1,-1,-1,-1,-1,-1,-1,,-1,-1,-1,-1,,-1,1,0
165,38604,5543c28a0f36feb3,MAIRIE,46.5667915,3.3532132,"3, Place Jules Ferry",03400,1470,Yzeure,03321,2,0470485300,,,2020-10-23 10:12:10.929037,,0,0,0,0,0,1,0,,,,-1,-1,-1,-1,-1,-1,-1,,-1,-1,-1,-1,,-1,2,5
166,38605,192de342d019f3ca,Pompes funèbres Krost,46.5541513,3.3548034,"59, rue des Cladets – Z.A. Panloup",03400,1470,Yzeure,03321,2,0470208868,contact@sophie-krost.fr,,2020-10-23 10:12:11.029222,,1,1,1,1,1,1,1,,,,-1,1,1,0,1,1,1,https://meilleures-pompes-funebres.com/03/yzeure/pompes-funebres-krost,0,1,1,1,825 138 936 00018 ,-1,0,0
167,38606,6688f44afbad3222,SARL KOELHER Bernard,46.167251,2.6322009,Grand Rue,03420,1536,Marcillat-en-Combraille,03161,3,0470517459,,,2020-10-23 10:12:11.151029,,0,1,0,1,1,1,1,,,,-1,-1,-1,-1,-1,-1,-1,,-1,-1,-1,-1,,-1,2,4
168,38607,3de1d330c39da080,Pompes Funèbres Marbreries Genestier,46.315079,3.307943,Z.A. la Carmone,03500,1552,Saint-Pourçain-sur-Sioule,03254,2,0470454187,,,2020-10-23 10:12:11.304300,,1,1,1,1,1,1,1,,,,-1,1,1,0,1,1,1,https://meilleures-pompes-funebres.com/03/saint-pourcain-sur-sioule/pompes-funebres-maison-genestier,-1,1,1,1,483 120 838 00014,-1,0,0
169,38608,1e03dc79c6949990,Pompes Funèbres Générales,46.3077024,3.290959,"15, rue Séguier",03500,1552,Saint-Pourçain-sur-Sioule,03254,2,0470453169,Agence-SaintPourcainSurSioule-1@PFG.FR,,2020-10-23 10:12:11.412768,PFG Services Funéraires,0,1,1,1,1,1,1,,,,-1,1,1,0,1,1,1,,-1,1,1,1,542 076 799 21193,-1,0,0
170,38609,bcd3c6f13a72fa8a,Pompes Funèbres Roc-Eclerc,46.2905516,2.7408536,"29, rue Jean Jaurès",03600,1581,Commentry,03082,2,0470649438,,,2020-10-23 10:12:11.510231,Roc Eclerc,1,1,1,1,1,1,1,,,,-1,1,1,0,1,1,1,https://meilleures-pompes-funebres.com/03/commentry/pompes-funebres-roc-eclerc,-1,1,1,1,,-1,0,0
171,38610,90d39cba57c110c1,Pompes Funèbres Marbrerie Lascoux,46.2995384,2.7416494,"13, rue du Progrès",03600,1581,Commentry,03082,2,0470066535,,,2020-10-23 10:12:11.610973,,0,1,1,1,1,1,1,,,,-1,1,1,0,1,1,1,,-1,1,1,1,752 114 280 00015,-1,0,0
172,38611,d6a919f2494abdf3,MAIRIE,46.1171896,3.4011283,ZA rue des Lauriers,03700,1525,Bellerive-sur-Allier,03023,3,0470588700,,,2020-10-23 10:12:11.715934,,0,0,0,0,0,1,0,,,,-1,-1,-1,-1,-1,-1,-1,,-1,-1,-1,-1,,-1,2,5
173,38612,74a2ae0437f40c76,CHAUCHEPRAT Serge,46.094319,3.2100616,Route de Charmes,03800,1471,Gannat,03118,2,0470903320,,,2020-10-23 10:12:11.817055,,0,0,0,0,0,1,0,,,,-1,-1,-1,-1,-1,-1,-1,,-1,-1,-1,-1,,-1,2,10
174,38613,48d7b7818fa5f772,Pompes Funèbres Rocher,46.1023559,3.1968604,"15, Grande Rue",03800,1471,Gannat,03118,2,0470900284,,,2020-10-23 10:12:11.936218,,0,1,1,1,1,1,1,,,,-1,1,1,0,1,1,1,https://meilleures-pompes-funebres.com/03/gannat/pompes-funebres-rocher,-1,1,1,1,483 120 838 00055,-1,0,0
175,38614,23656f9bdc48f99d,Pompes Funèbres Bourbonnaises,46.1091367,3.2011913,"16, cours des Clos Durs",03800,1471,Gannat,03118,2,0621464675,pf.bourbonnaises@gmail.com,,2020-10-23 10:12:12.047833,,1,1,1,1,1,1,1,,,,-1,1,-1,-1,-1,1,1,https://meilleures-pompes-funebres.com/03/gannat/pompes-funebres-bourbonnaises,-1,-1,-1,-1,518 808 282 00017,-1,0,0
176,38615,00a91f513ce52ab8,Pompes Funèbres Générales,44.0921155,6.237325,"8-10, place Grenette",04000,1921,Digne-les-Bains,04070,2,0492310434,Agence-DigneLesBains-1@PFG.FR,,2020-10-23 10:12:12.162026,PFG Services Funéraires,0,1,1,1,1,1,1,,,38821,-1,1,1,-1,1,1,1,https://meilleures-pompes-funebres.com/04/digne-les-bains/pompes-funebres-generales-pfg,-1,1,1,-1,542 076 799 14461,-1,0,0
177,38616,9c3d4f11bf84da0a,Pompes Funèbres et Marbrerie Cartier,44.0861959,6.2122133,"18, avenue de Verdun",04000,1921,Digne-les-Bains,04070,2,0492360504,Agence-DigneLesBains-2@DIGNITE.FR,,2020-10-23 10:12:12.268148,Dignité Funéraire,1,1,1,1,1,1,1,,,37729,-1,-1,1,-1,1,1,1,https://meilleures-pompes-funebres.com/04/digne-les-bains/pompes-funebres-cartier,-1,1,1,-1,428 164 065 00057,-1,0,0
178,38617,6a3f2aa0303c9d84,CHAMBRE FUNÉRAIRE,44.0877318,6.2125405,"7, chemin des Hautes- Sièyes Quartier Saint-Véran",04000,1921,Digne-les-Bains,04070,2,0492721921,,,2020-10-23 10:12:12.389059,,0,0,1,0,0,0,0,,,41378,-1,-1,-1,-1,-1,-1,-1,,-1,-1,-1,-1,,-1,2,2
179,38618,3badf3998dc018a6,Pompes Funèbres Roc-Eclerc,44.0935894,6.237204,"71-73-75, bd Gassendi",04000,1921,Digne-les-Bains,04070,2,0492353536,agence.digne-les-bains@roc-eclerc.fr,,2020-10-23 10:12:12.493959,Roc Eclerc,1,1,0,1,1,1,1,,,18-04-01,-1,-1,1,-1,1,1,1,,-1,1,1,-1,302 077 169 00837,-1,0,0
180,38619,c2b2cfb18e61376b,Ambulances de Manosque,43.8228133,5.7980555,"106, avenue Joliot Curie ZI Saint-Joseph",04100,183,Manosque,04112,2,0492875607,,,2020-10-23 10:12:12.589793,,0,0,0,0,0,0,1,,,39921,-1,1,-1,-1,-1,-1,-1,,-1,-1,-1,-1,419 915 848 00032,-1,2,15
181,38620,cf869ea790b6a327,Funexia Pompes Funèbres,43.8321872,5.7813409,"37, bd Elemir Bourges",04100,183,Manosque,04112,2,0492710044,funexia.manosque@wanadoo.fr,,2020-10-23 10:12:12.696982,,1,1,0,1,1,1,1,,,160408,-1,-1,1,-1,1,1,1,https://meilleures-pompes-funebres.com/04/manosque/funexia-pompes-funebres,-1,1,-1,-1,403 752 009 00049,-1,0,0
182,38621,9a91c597b7f6edf7,Pompes Funèbres Pascal LECLERC,43.8332163,5.7862565,"5, espace Privat Jean Molinier",04100,183,Manosque,04112,2,0492777339,pascal.leclerc.manosque@gmail.com,,2020-10-23 10:12:12.805781,POMPES FUNEBRES Pascal LECLERC,1,1,1,1,1,1,1,,,14/04/14,-1,-1,1,-1,1,1,1,,-1,1,1,1,388 374 530 00029,-1,0,0
183,38622,2122c47951a42adf,POMPES FUNÈBRES RAYMOND,43.8340338,5.7815229,"11, place des Marchands",04100,183,Manosque,04112,2,0492776412,,,2020-10-23 10:12:12.914835,,0,1,0,1,1,1,1,,,39919,-1,-1,-1,-1,-1,-1,-1,,-1,-1,-1,-1,,-1,2,10
184,38623,ab70c05c268604e2,Pompes Funèbres Raymond,43.8301686,5.8051157,"320, avenue du Docteur Bernard Foussier rés. Le Prémium",04100,183,Manosque,04112,2,0492749004,,,2020-10-23 10:12:13.026235,,0,1,0,1,1,1,1,,,40284,-1,-1,1,-1,1,-1,-1,https://meilleures-pompes-funebres.com/04/manosque/pompes-funebres-raymond,-1,-1,-1,-1,411 599 533 00030,-1,0,0
185,38624,43271044e66de68f,La Maison des Obsèques - ETS LA ROSA,43.825648,5.7883293,"79, avenue De Lattre de Tassigny",04100,183,Manosque,04112,2,0492727254,groupelarosa.04100@gmail.com,,2020-10-23 10:12:13.180228,La Maison des obsèques,0,1,1,0,1,0,0,,,38092,1,1,1,0,1,1,1,https://meilleures-pompes-funebres.com/04/manosque/pompes-funebres-la-maison-des-obseques-ets-la-rosa,-1,0,1,1,,-1,0,0
186,38625,622466a1f2f11ecf,Pompes Funèbres Générales,43.8307483,5.7809884,"306, avenue Majoral Arnaud",04100,183,Manosque,04112,2,0492721921,Agence-Manosque-2@PFG.FR,,2020-10-23 10:12:13.302192,PFG Services Funéraires,1,1,1,1,1,1,1,,,39917,-1,1,1,-1,1,1,1,https://meilleures-pompes-funebres.com/04/manosque/pompes-funebres-generales-pfg-0,-1,1,1,-1,542 076 799 03225,-1,0,0
187,38626,fa695e3b7601d813,FUNESPACE,43.8392586,5.7796399,76-136 avenue de l’Argile,04100,183,Manosque,04112,2,0492721323,Agence-Manosque-1@DIGNITE.FR,,2020-10-23 10:12:13.429114,Dignité Funéraire,1,1,0,1,1,1,1,,,40647,-1,-1,1,-1,1,1,1,,-1,1,1,-1,,-1,0,0
188,38627,6c7ab7ce32e46c88,CHAMBRE FUNÉRAIRE DE MANOSQUE,43.8504962,5.7724644,Chemin de la Mort d’Imbert,04100,183,Manosque,04112,2,0492721921,,,2020-10-23 10:12:13.536210,,0,0,1,0,0,0,0,,,41013,-1,-1,-1,-1,-1,-1,-1,,-1,-1,-1,-1,,-1,2,10
189,38628,4879de12c55b7848,CREMATORIUM,43.8450231,5.7746693,260 chemin du Grand Vallon,04100,183,Manosque,04112,2,0492723526,,,2020-10-23 10:12:13.657066,,0,1,0,0,0,0,0,,,38457,-1,-1,-1,-1,-1,-1,-1,,-1,-1,-1,-1,,-1,2,3
190,38629,9dcff8ee0fb4a20c,Pompes Funèbres EuroFune,44.3515963,6.3559323,"14, grande rue",04140,1755,Seyne,04205,2,0492353706,pompesfunebres.ferret@orange.fr,,2020-10-23 10:12:13.766078,FUNÉPLUS,0,1,0,1,1,1,1,,,18 04 04,0,1,0,0,1,1,1,https://meilleures-pompes-funebres.com/04/seyne/euro-fune,-1,0,0,1,421 018 821 00023,-1,0,0
191,38630,e75b1b82f232ce58,Pompes Funèbres Ets HUGUENET & Fils,44.0379505,5.62795,Place de la République,04150,1898,Banon,04018,2,0492733521,huguenet.funeraire@orange.fr,,2020-10-23 10:12:13.868069,FUNÉPLUS,0,1,1,1,1,1,1,,,39190,1,1,1,0,1,1,1,,-1,1,1,1,,-1,0,0
192,38631,fef379cdc7988cbc,HUGUENET & FILS ALBION FUNERAIRE,44.083171,5.548266,Le Grangeon Route de Banon,04150,1778,Revest-du-Bion,04163,3,0492772524,,,2020-10-23 10:12:13.972661,,1,1,1,1,1,1,1,,,38825,-1,-1,-1,-1,-1,-1,-1,,-1,-1,-1,-1,,-1,2,0
193,38632,038f1f6df4921405,CHAMBRE FUNERAIRE,44.117285,5.5387204,Route de Banon,04150,1778,Revest-du-Bion,04163,3,0492772524,,,2020-10-23 10:12:14.095624,,0,0,1,0,0,0,0,,,39556,-1,-1,-1,-1,-1,-1,-1,,-1,-1,-1,-1,,-1,0,0
194,38633,d4d35e6214501cbf,SARL MUS TTP,44.078283,5.550394,Chemin du Jean Vincent,04150,1778,Revest-du-Bion,04163,3,0492772073,,,2020-10-23 10:12:14.208624,,0,1,0,0,0,1,0,,,39555,-1,-1,-1,-1,-1,-1,-1,,-1,-1,-1,-1,,-1,0,0
195,38634,19102b2bde781b3a,SERVICE FUNÉRAIRE MUNICIPAL,44.264551,5.840844,Place Ernest Esclangon,04200,1846,Mison,04123,3,0492622117,,,2020-10-23 10:12:14.439005,,0,0,0,0,0,1,0,,,39189,-1,-1,-1,-1,-1,-1,-1,,-1,-1,-1,-1,,-1,2,5
196,38635,181b7a87515bdcaa,Jean-LOuis GRIT,44.1578372,5.9507635,"23, route du Jabron Les Bons Enfants",04200,1922,Peipin,04145,3,0492624699,,,2020-10-23 10:12:14.569091,,0,0,0,0,0,1,0,,,39186,-1,-1,-1,-1,-1,-1,-1,,-1,-1,-1,-1,,-1,1,0
197,38636,4133979372217b05,Pompes Funèbres Générales,44.1913637,5.9447277,"22, avenue de la Libération",04200,1892,Sisteron,04209,2,0492610267,Agence-Sisteron-1@PFG.FR,,2020-10-23 10:12:14.688140,PFG Services Funéraires,1,1,0,1,1,1,1,,,40282,-1,1,0,0,1,1,1,https://meilleures-pompes-funebres.com/04/sisteron/pompes-funebres-generales-pfg,-1,1,1,1,542 076 799 21003,-1,0,0
198,38637,852bcc8e68a266cf,Pompes Funèbres et Marbrerie Cartier - Dignité Funéraire,44.1934043,5.9440314,"4, bis avenue de la Libération",04200,1892,Sisteron,04209,2,0492615126,Agence-Sisteron-2@DIGNITE.FR,,2020-10-23 10:12:14.789012,Dignité Funéraire,1,1,1,1,1,1,1,,,37364,-1,1,0,0,1,1,1,https://meilleures-pompes-funebres.com/04/sisteron/pompes-funebres-cartier,-1,1,1,1,428 164 065 00065,-1,0,0
199,38638,fa7bad83edd30459,Olivier Funéraire,44.1924737,5.9443355,"8, avenue de la Libération",04200,1892,Sisteron,04209,2,0492774549,,,2020-10-23 10:12:14.890009,Roc Eclerc,1,1,1,1,1,1,1,,,39553,1,1,0,0,1,1,1,https://meilleures-pompes-funebres.com/04/sisteron/agence-funeraire-olivier,-1,1,-1,-1,,-1,0,0
200,38639,0972887a91d27bd8,Ambulances VOLPE,44.1790496,5.9493319,"45, route de Marseille",04200,1892,Sisteron,04209,2,0492610949,,,2020-10-23 10:12:15.001180,,0,0,0,0,0,0,1,,,38822,0,1,1,0,0,0,-1,,-1,0,0,1,379 002 561 00031,-1,2,15
201,38640,8b0830a6771dafce,POMPES FUNÈBRES DES ALPES,44.1941185,5.9443149,Résidence du Parc rue des Cordeliers,04200,1892,Sisteron,04209,2,0492610909,,,2020-10-23 10:12:15.114822,,1,1,1,1,1,1,1,,,38456,-1,-1,-1,-1,-1,-1,-1,,-1,-1,-1,-1,,-1,2,4
202,38641,c50e32867b7a6f6a,CHAMBRE FUNÉRAIRE DURANCE BUECH,44.232987,5.90918,Zone Artisanale Le Plan Roman-Amat,04200,1892,Sisteron,04209,2,0492344016,,,2020-10-23 10:12:15.234972,,0,0,1,0,0,0,0,,,36995,-1,-1,-1,-1,-1,-1,-1,,-1,-1,-1,-1,,-1,2,2
203,38642,249538e2feb4017a,Pompes Funèbres MURAIRE,43.965606,6.667977,Place des Platanes,04240,1935,Annot,04008,2,0492832280,pfmuraire@orange.fr,,2020-10-23 10:12:15.346496,,0,1,0,1,1,1,1,,,40649,-1,0,0,0,1,1,1,https://meilleures-pompes-funebres.com/04/annot/pompes-funebres-muraire,-1,0,0,1,483 366 803 00029,-1,0,0
204,38643,01a02eccc771ac8d,SERVICE FUNÉRAIRE MUNICIPAL,43.9663484,6.6669234,Boulevard Saint-Pierre - Place du Grand Marché,04240,1935,Annot,04008,2,0492832209,,,2020-10-23 10:12:15.452278,,0,1,0,0,0,1,0,,,37361,-1,-1,-1,-1,-1,-1,-1,,-1,-1,-1,-1,,-1,2,5
205,38644,48557210d285f339,SERVICE FUNÉRAIRE MUNICIPAL,44.340364,6.161303,Le Village,04250,1928,Bayons,04023,3,0492683103,,,2020-10-23 10:12:15.587816,,0,1,0,0,0,1,0,,,37362,-1,-1,-1,-1,-1,-1,-1,,-1,-1,-1,-1,,-1,2,5
206,38645,36aa6a234bf48c4f,Olivier Funéraire,43.960449,5.7795455,"7, avenue Marcel André",04300,1759,Forcalquier,04088,2,0492774549,agence.forcalquier@pf-olivierfuneraire.fr,,2020-10-23 10:12:15.688017,Roc Eclerc,0,1,0,1,1,1,1,,,17.04.09,-1,1,0,0,1,1,1,https://meilleures-pompes-funebres.com/04/forcalquier/agence-funeraire-olivier,-1,1,1,-1,,-1,0,0
207,38646,37bef3834d5702f1,FUNEXIA Pompes Funèbres,43.9583523,5.7793997,"28, bd Latourette",04300,1759,Forcalquier,04088,2,0492754606,funexia.forcalquier@wanadoo.fr,,2020-10-23 10:12:15.797037,,1,1,0,1,1,1,1,,,39188,-1,1,0,0,1,1,1,https://meilleures-pompes-funebres.com/04/forcalquier/pompes-funebres-funexia,-1,1,1,-1,,-1,0,0
208,38647,ba19b7271e6a840d,Pompes Funèbres HUGUENET & FILS,43.9579722,5.7780094,"6, bd de la République",04300,1759,Forcalquier,04088,2,0492764682,huguenet.funeraire@orange.fr,,2020-10-23 10:12:15.895994,FUNÉPLUS,1,1,1,1,1,1,1,,,37726,1,1,1,0,1,1,1,,-1,1,1,1,,-1,0,0
209,38648,159f467027150a2f,SERVICE FUNÉRAIRE MUNICIPAL,43.9499784,6.8101685,Place Charles Panier,04320,1763,Entrevaux,04076,3,0493053410,,,2020-10-23 10:12:16.013345,,0,1,0,0,0,1,0,,,39187,-1,-1,-1,-1,-1,-1,-1,,-1,-1,-1,-1,,-1,2,5
210,38649,e13e6335396085b8,Pompes Funèbres PONZA,44.3870634,6.6509827,Zone du pont Long,04400,1885,Barcelonnette,04019,2,0492810181,ponzafuneraire@gmail.com,,2020-10-23 10:12:16.110939,,0,1,1,0,1,1,1,,,14.04.15,0,1,0,0,1,1,1,https://meilleures-pompes-funebres.com/04/barcelonnette/pompes-funebres-ponza,-1,-1,-1,1,,-1,0,0
211,38650,31df35c1fdcdd2f3,PFP,44.3862384,6.6528757,"15, avenue Porfirio Diaz",04400,1885,Barcelonnette,04019,2,0492810181,,,2020-10-23 10:12:16.206814,,1,1,0,1,1,1,1,,,36998,-1,-1,-1,-1,-1,-1,-1,,-1,-1,-1,-1,,-1,2,7
212,38651,6b832cc1943ae64f,CHAMBRE FUNERAIRE,44.3877396,6.6583243,Allée des Rosiers Cimetière,04400,1885,Barcelonnette,04019,2,,,,2020-10-23 10:12:16.315859,,0,0,1,0,0,0,0,,,42108,-1,-1,-1,-1,-1,-1,-1,,-1,-1,-1,-1,,-1,2,2
213,38652,4205719c31c5e68a,Pompes Funèbres de Riez,43.8177235,6.0929532,"8, place Saint-Antoine",04500,1838,Riez,04166,2,0492728531,,,2020-10-23 10:12:16.409811,,1,1,0,1,1,1,1,,,41015,-1,1,-1,-1,1,1,1,,-1,-1,-1,1,839 761 657 00015,-1,0,0
214,38653,91b0297f47516c06,Olivier Funéraire,44.0671108,6.1734083,"15, Pré de L’Escale quartier la Lauze",04510,1774,Aiglun,04001,2,0647428306,,,2020-10-23 10:12:16.510368,Roc Eclerc,0,1,0,1,1,1,1,,,38460,1,1,0,0,1,1,1,,-1,1,0,1,,-1,0,0
215,38654,ea5c6121b921def2,Ambulances Dignoises,44.0675868,6.1740325,"16, voie du Pré de l’Escale quartier la Lauze",04510,1774,Aiglun,04001,2,0492310292,,,2020-10-23 10:12:16.607008,,0,0,0,0,0,0,1,,,37725,-1,1,0,0,0,0,-1,,-1,0,0,1,433 784 451 00026,-1,2,15
216,38655,26692e1a5571aaa0,FUNEXIA Pompes Funèbres,43.9231704,5.8912889,Zone artisanale Les Iscles,04700,1788,La Brillanne,04034,2,0492781470,funexia.forcalquier@wanadoo.fr,,2020-10-23 10:12:16.723951,,1,1,0,1,1,1,1,,,37728,1,1,0,0,1,1,1,,-1,1,0,1,,-1,0,0
217,38656,3b8a3dcb0b184d65,Pompes Funèbres et Marbrerie STEENKISTE,43.917941,5.9186748,Avenue Abdon Martin,04700,1870,Oraison,04143,2,0492798588,Agence-Oraison-2@DIGNITE.FR,,2020-10-23 10:12:16.819138,Dignité Funéraire,1,1,1,1,1,1,1,,,38094,1,1,0,0,1,1,1,https://meilleures-pompes-funebres.com/04/oraison/pompes-funebres-steenkiste-sarl,-1,1,1,1,,-1,0,0
218,38657,f3f5ece930db1ba2,CHAMBRE FUNÉRAIRE,43.907555,5.904615,Zone Artisanale Les BOuillouettes,04700,1870,Oraison,04143,2,,,,2020-10-23 10:12:16.917071,,0,0,1,0,0,0,0,,,37727,-1,-1,-1,-1,-1,-1,-1,,-1,-1,-1,-1,,-1,2,10
219,38658,cb372a1ecec1ec4f,Allemand Andre,44.5265816,6.0596565,"106, Route Luye La Basse Tourronde",05000,6,Gap,05061,1,0492521558,,,2020-10-23 10:12:17.020802,,0,0,0,0,0,1,0,,,,-1,-1,-1,-1,-1,-1,-1,,-1,-1,-1,-1,,-1,1,0
220,38659,1bcbc26134d7c33f,Pompes Funèbres Marbrerie Aubin Funéraire,44.5576955,6.0777996,5 place Saint Arnoux,05000,6,Gap,05061,1,0492517686,pf-aubin-st@wanadoo.fr,,2020-10-23 10:12:17.120830,,1,1,1,1,1,1,1,,,15.05.01,1,1,0,0,1,1,1,,0,0,0,1,315 133 785 00040,-1,0,0
221,38660,00be37f96d12fcae,Pompes Funèbres Marbrerie Aubin Funéraire,44.5421887,6.068225,Allée du Cimetière St Roch,05000,6,Gap,05061,1,0492525757,pf-aubin-st@wanadoo.fr,,2020-10-23 10:12:17.217921,,1,1,1,1,1,1,1,,,,1,1,1,0,1,1,1,https://meilleures-pompes-funebres.com/05/gap/aubin-funeraire,0,0,0,1,315 133 785 00032,-1,0,0
222,38662,2895ced701e288c4,Pompes Funèbres Rolando Marcellin,44.5576729,6.0748687,26 Rue du 11 Novembre,05000,6,Gap,05061,1,0492512220,pfrolando05@gmail.com,,2020-10-23 10:12:17.436834,,0,1,1,1,1,1,1,,,15-05-30,1,1,1,0,1,0,1,https://meilleures-pompes-funebres.com/05/gap/rolando-marcellin-pompes-funebres,0,0,0,1,424 977 692 00039,-1,0,0
223,38664,c96f6b9f4037906e,Pompes Funèbres Générales,44.5544737,6.0744379,19 Avenue Jean Jaurès,05000,6,Gap,05061,1,0492523474,Agence-Gap-1@PFG.FR,,2020-10-23 10:12:17.634554,PFG Services Funéraires,1,1,0,1,1,1,1,,,,1,1,0,0,1,1,1,https://meilleures-pompes-funebres.com/05/gap/pompes-funebres-generales-pfg,0,1,1,1,542 076 799 02292,-1,0,0
224,38665,cfe6a1c1216347df,QUEYRAS MARINE,44.5643436,6.0621298,6 impasse de la Charancelle,05000,6,Gap,05061,1,0613630720,,,2020-10-23 10:12:17.726961,,1,0,0,0,0,0,0,,,,-1,-1,-1,-1,-1,-1,-1,,-1,-1,-1,-1,,-1,1,0
225,38666,377cfa6ade175b6d,SFU des Hautes Alpes Clémentine ALLOuiS épouse CASSOU,44.5520519,6.0772983,14 route de Ste Marguerite,05000,6,Gap,05061,1,0681187440,,,2020-10-23 10:12:17.825061,,1,0,0,0,0,0,0,,,,-1,-1,-1,-1,-1,-1,-1,,-1,-1,-1,-1,,-1,1,0
226,38667,a8d867681e6ccfd7,Société Du Crématorium De Gap,44.5335977,6.0616409,Route De la Luye,05000,6,Gap,05061,1,0492242020,,,2020-10-23 10:12:17.919968,,0,0,0,0,0,0,0,,,,-1,-1,-1,-1,-1,-1,-1,,-1,-1,-1,-1,,-1,2,3
227,38668,226b26758d006ae6,GALLAND Geneviève,44.499435,6.040759,Sierre Niou,05000,1977,Neffes,05092,3,0618408804,,,2020-10-23 10:12:18.012976,,1,0,0,0,0,0,0,,,,-1,-1,-1,-1,-1,-1,-1,,-1,-1,-1,-1,,-1,2,10
228,38669,1e465350513b9178,Pompes Funèbres Intercommunales du Briançonnais,44.9076009,6.6296294,12 Avenue Adrien Daurelle,05100,2107,Briançon,05023,2,0492213651,pfib2@wanadoo.fr,,2020-10-23 10:12:18.105956,,1,1,1,1,1,1,1,,,,0,-1,-1,-1,-1,-1,-1,https://meilleures-pompes-funebres.com/05/briancon/centre-funeraire-intercommunal,-1,-1,-1,-1,,-1,0,0
229,38670,d0c159bf974addb2,ROBRESCO Jean- LOuis,44.375285,5.563618,Le Village,05150,1963,Sorbiers,05169,3,0492662142,,,2020-10-23 10:12:18.224752,,0,0,0,0,0,1,0,,,,-1,-1,-1,-1,-1,-1,-1,,-1,-1,-1,-1,,-1,1,0
230,38671,c5dcb4fd94a34c18,Pompes Funèbres SILVE,44.547483,6.4830759,Route de Gap,05200,1984,Embrun,05046,2,,pfsilve@hotmail.fr,,2020-10-23 10:12:18.322730,,0,1,1,1,1,1,1,,,14-05-25,1,1,1,1,1,1,1,https://meilleures-pompes-funebres.com/05/embrun/pompes-funebres-et-marbrerie-silve,-1,1,0,1,344 540 059 00013,-1,0,0
231,38672,da6a2ee2d744165b,Pompes Funèbres PONZA,44.557794,6.4681652,Route des Puys,05200,1984,Embrun,05046,2,0492432757,ponzafuneraire@gmail.com,,2020-10-23 10:12:18.427183,,0,1,1,1,1,1,1,,,12.05.10,1,1,-1,-1,1,1,1,https://meilleures-pompes-funebres.com/05/embrun/ponza-funeraire-embrun,-1,-1,-1,1,,-1,0,0
232,38673,07509bc6e5189b1d,BONNAFFOUX Luc,44.5507888,6.2410098,Le Village,05230,1957,Montgardin,05084,3,0492503503,,,2020-10-23 10:12:18.531425,,0,0,0,0,0,1,0,,,,-1,-1,-1,-1,-1,-1,-1,,-1,-1,-1,-1,,-1,2,10
233,38674,908869c91550bfa8,Pompes Funèbres et Marbrerie Cartier,44.3143283,5.8218482,7 Rue De l'Hôtel de Ville,05300,2052,Laragne-Montéglin,05070,2,0492666551,Agence-LaragneMonteglin-1@DIGNITE.FR,,2020-10-23 10:12:18.631445,Dignité Funéraire,1,1,0,0,1,1,1,,,,1,1,0,0,1,1,1,https://meilleures-pompes-funebres.com/05/laragne-monteglin/dignite-pompes-funebres-et-marbrerie-cartier,-1,1,1,1,,-1,0,0
234,38675,f42778253caa2967,Pompes Funèbres Rolando Marcellin,44.3142758,5.8228782,13 Place de la Fontaine,05300,2052,Laragne-Montéglin,05070,2,0492651600,pfrolando05@gmail.com,,2020-10-23 10:12:18.740066,,0,1,1,1,1,1,1,,,,1,1,0,0,1,1,1,,-1,0,1,1,424 977 692 00021,-1,0,0
235,38676,82bbbb05757cd1c5,Pompes Funèbres de France du Buëch,44.534049,5.8224132,35 rue Berthelot,05400,1940,Veynes,05179,2,0492580252,,,2020-10-23 10:12:18.856317,,0,1,0,1,1,1,1,,,,-1,1,-1,-1,1,1,1,https://meilleures-pompes-funebres.com/05/veynes/pompes-funebres-du-buech,-1,-1,-1,1,390 575 736 00033,-1,0,0
236,38677,5f6dc33830001086,SARL FEUILLASSIER Claude,44.6604298,6.6586571,Route du Queyras,05600,2006,Guillestre,05065,3,0492450048,,,2020-10-23 10:12:18.994706,,0,0,0,0,0,1,0,,,,-1,-1,-1,-1,-1,-1,-1,,-1,-1,-1,-1,,-1,1,0
237,38678,3fdb6eecbf996371,EYMARD Paul,44.8033086,6.1014478,Les Barrengears,05800,2077,Saint-Maurice-en-Valgodemard,05152,3,0684706205,,,2020-10-23 10:12:19.111452,,0,0,0,0,0,1,0,,,,-1,-1,-1,-1,-1,-1,-1,,-1,-1,-1,-1,,-1,2,10
238,38679,9023ad14036bd000,SARL Pompes Funèbres « Assistance »,43.7181694,7.2820132,"109, avenue Maréchal Lyautey",06000,8,Nice,06088,1,0493139511,,,2020-10-23 10:12:19.227496,,0,1,0,0,1,1,0,,,,-1,-1,-1,-1,-1,-1,-1,,-1,-1,-1,-1,,-1,2,0
239,38680,a240e7cabb70aa47,SARL Azur Concept Funéraire,43.713732,7.238285,173 route de Saint-Pierre de Féric Bât B – Sur les Collines,06000,8,Nice,06088,1,0492102168,,,2020-10-23 10:12:19.345560,,0,1,0,0,1,1,1,,,,-1,-1,-1,-1,-1,-1,-1,,-1,-1,-1,-1,,-1,2,10
240,38681,eac557bfbfda579f,SARL Azur Thanatopraxie,43.701663,7.2725658,18 rue Pastorelli C/o GP Invest,06000,8,Nice,06088,1,0628787983,,2018-08-01,2020-10-23 10:12:19.456105,,1,1,0,0,0,0,0,,,,-1,-1,-1,-1,-1,-1,-1,,-1,-1,-1,-1,,-1,2,0
241,38682,349a2fd034a04000,Briet Funéraire,43.6819799,7.2312954,200 avenue de La Californie,06000,8,Nice,06088,1,0493836936,contact@brietfuneraire.com,,2020-10-23 10:12:19.564141,,0,1,0,0,1,1,0,,,20-06-0207,1,1,0,0,1,1,1,,0,0,0,1,883 846 834 00017,-1,0,0
242,38683,bb94f812189ae640,SARL BMSF,43.694587,7.2436894,"24, boulevard de la Madeleine",06000,8,Nice,06088,1,0636544249,,,2020-10-23 10:12:19.657049,,0,1,0,1,0,1,1,,,,-1,-1,-1,-1,-1,-1,-1,,-1,-1,-1,-1,,-1,2,0
243,38684,55d8489eebc84e26,Agence Funéraire Niçoise,43.7011703,7.2626096,4 ter avenue Durante Le Rond Point,06000,8,Nice,06088,1,0492271584,pfnicoise@gmail.com,,2020-10-23 10:12:19.761285,,0,1,0,1,1,1,1,,,2017-06-029,0,0,1,0,1,0,-1,https://meilleures-pompes-funebres.com/06/nice/agence-funeraire-nicoise,0,0,0,1,354 055 790 00050,-1,0,0
244,38685,d68fbc9eadd658eb,Ecoplus Funéraire,43.7191537,7.2829562,"127, avenue Maréchal Lyautey",06000,8,Nice,06088,1,0493800708,ecoplusnice@gmail.com,,2020-10-23 10:12:19.876458,Ecoplus Funéraire,1,1,0,0,1,0,0,,,20-06-0086,0,1,1,0,1,1,1,https://meilleures-pompes-funebres.com/06/nice/ecoplus-nice,0,0,1,1,539 698 134 00019,-1,0,0
245,38686,6b966203be3bd32e,Pompes Funèbres des Alpes Méridionales,43.7023417,7.2638107,"13, rue Paganini",06000,8,Nice,06088,1,0493883516,agence.nice@pf-alpes-meridionales.fr,,2020-10-23 10:12:19.995077,Roc Eclerc,1,1,0,1,1,1,1,,,2016-06-027,-1,-1,-1,-1,-1,-1,-1,https://meilleures-pompes-funebres.com/06/nice/sepfam,-1,-1,-1,-1,302 077 169 00878,-1,0,0
246,38687,91c4bf6604a0cb5e,Pompes Funèbres ROBLOT,43.6767243,7.2247957,59 Avenue Saint-Augustin,06000,8,Nice,06088,1,0492298290,Agence-Nice-3@ROBLOT.FR,,2020-10-23 10:12:20.120207,Pompes Funèbres Roblot,1,1,1,1,0,0,0,,,18-75-0001,1,1,1,0,1,1,1,https://meilleures-pompes-funebres.com/06/nice/roblot-nice-avenue-saint-augustin,0,1,1,1,,-1,0,0
247,38688,467bd4353af2fb0d,Pompes Funèbres Marbrerie Raygot,43.7249089,7.2743478,51 avenue Reine Victoria,06000,8,Nice,06088,1,0493620185,raygot.pfm@gmail.com,,2020-10-23 10:12:20.227232,,1,1,0,0,1,1,0,,,,1,1,1,1,1,1,1,https://meilleures-pompes-funebres.com/06/nice/pompes-funebres-marbrerie-raygot,0,0,1,1,838 992 477 00011,-1,0,0
248,38689,e7d8acfdec12b0d2,Pompes Funèbres Nationale,43.6953617,7.2426361,17 boulevard de La Madeleine,06000,8,Nice,06088,1,0493181438,contact@pompesfunebresnationale.com,,2020-10-23 10:12:20.344460,,1,1,1,1,1,1,1,,,,0,1,1,1,1,1,1,,0,1,1,1,484 739 164 00081,-1,0,0
249,38690,7f43c1321dff608a,Camélia Funéraires,43.7016579,7.2686997,"6, rue Spitalieri",06100,8,Nice,06088,1,0493534374,info@cameliafuneraires.com,,2020-10-23 10:12:20.466618,,0,1,0,1,1,1,1,,,,1,1,0,0,1,0,1,https://meilleures-pompes-funebres.com/06/nice/camelia-funeraires,0,0,1,1,879 953 768 00014,-1,0,0
250,38691,032bdb451eebe844,Pompes Funèbres des Collines - Le Choix Funéraire,43.7253233,7.254097,57 avenue du Ray,06100,8,Nice,06088,1,0493444619,pfcollines3@orange.fr,,2020-10-23 10:12:20.571968,Le Choix Funéraire,1,1,1,1,1,1,1,,,2013 06 033,0,1,1,0,1,1,1,https://meilleures-pompes-funebres.com/06/nice/pompes-funebres-des-collines,0,0,-1,1,433 864 204 00063,-1,0,0
251,38692,f6a34ed0974fd2b3,Pompes Funèbres des Collines,43.7277816,7.2575946,29 avenue de Gairaut,06100,8,Nice,06088,1,0493845414,pfcollines3@orange.fr,,2020-10-23 10:12:20.682025,Le Choix Funéraire,0,0,1,0,0,0,0,,,,0,0,0,0,0,0,-1,,0,0,0,0,433 864 204 00105,-1,0,0
252,38693,c96e9c519a41049f,Pompes Funèbres du Centre,43.7117693,7.2588572,12/14 boulevard Auguste Raynaud,06100,8,Nice,06088,1,0492091326,Agence-Nice-5@DIGNITE.FR,,2020-10-23 10:12:20.792157,Dignité Funéraire,1,1,1,1,1,1,1,,,,1,1,1,0,1,1,1,https://meilleures-pompes-funebres.com/06/nice/agence-funeraire-nouvelle-pompes-funebres-du-centre,0,0,1,1,394 110 456 00016,-1,0,0
253,38694,5c58822b806391b0,Pompes funèbres Florian Leclerc Sublimatorium,43.5760774,7.0178282,30 boulevard Sadi Carnot,06110,2198,Le Cannet,06030,1,0493941279,pfs.florianleclerc@orange.fr,,2020-10-23 10:12:20.894868,Services funéraires Sublimatorium Florian Leclerc,0,1,0,0,1,0,1,,,2016-06-006,-1,1,1,1,1,1,1,https://meilleures-pompes-funebres.com/06/le-cannet/pompes-funebres-florian-leclerc-sublimatorium,-1,1,1,1,798 849 451 00017,-1,0,0
254,38695,3f31f4bb0b29bde0,Pompes Funèbres Osiris - Maison Silva,43.5689457,7.0054749,119 boulevard Paul Doumer,06110,2198,Le Cannet,06030,1,0493432424,info@osiris.rip,,2020-10-23 10:12:20.989582,,0,1,0,1,1,1,1,,,,-1,1,1,0,1,1,1,,-1,0,0,1,,-1,0,0
255,38696,2ba249a49a349a66,Pompes Funèbres Adathice Funéraire,43.6400016,6.9415091,72 boulevard Emmanuel Rouquier,06130,2122,Grasse,06069,1,0493426608,adathice@gmail.com,,2020-10-23 10:12:21.101189,,1,1,0,1,1,1,1,,,2016.06.013,1,1,0,0,1,1,1,https://meilleures-pompes-funebres.com/06/grasse/pompes-funebres-adathice,0,1,1,1,800 232 654 00023,-1,0,0
256,38697,923121a7c01e1172,Pompes Funèbres du Canton,43.6413362,6.9119204,"7, avenue Félix Raybaud",06130,2122,Grasse,06069,1,0493091573,pfcanton06@gmail.com,,2020-10-23 10:12:21.210948,,1,1,1,1,1,0,1,,,201606011,-1,1,1,0,1,1,1,https://meilleures-pompes-funebres.com/06/grasse/pompes-funebres-du-canton,0,0,0,1,441 550 357 00020,-1,0,0
257,38698,c211d8e957fd61c6,Marbrerie Mancini,43.6462934,6.9143247,63 avenue de la Libération,06130,2122,Grasse,06069,1,0493090950,marbrerie.mancini@orange.fr,,2020-10-23 10:12:21.322978,,0,1,0,0,1,1,1,,,,-1,0,-1,-1,1,1,1,https://meilleures-pompes-funebres.com/06/grasse/marbrerie-mancini,-1,-1,-1,-1,391 581 394 00015,-1,0,0
258,38699,f1630a768cde1415,Pompes Funèbres ROC ECLERC,43.6436183,6.9422586,25 boulevard Rouquier,06130,2122,Grasse,06069,1,0492911212,cdc@roc-eclerc.fr,,2020-10-23 10:12:21.440979,Roc Eclerc,1,1,0,1,1,1,1,,,,1,1,0,0,1,1,1,,0,1,1,1,,-1,0,0
259,38700,6183ae17c798cc4d,Pompes Funèbres et Marbrerie CATON,43.6580472,6.922538,"4, rue Amiral de Grasse",06130,2122,Grasse,06069,1,0493365071,Agence-Grasse-1@DIGNITE.FR,,2020-10-23 10:12:21.529766,Dignité Funéraire,0,1,1,1,1,1,1,,,,1,1,1,0,1,1,1,https://meilleures-pompes-funebres.com/06/grasse/pompes-funebres-caton,0,1,1,1,,-1,0,0
260,38701,0e1bdcf2adad86ee,Pompes Funèbres ROBLOT,43.6474346,6.9125702,"41, chemin de la Pouiraque",06130,2122,Grasse,06069,1,0493401138,Agence-Grasse-3@ROBLOT.FR,,2020-10-23 10:12:21.619350,Pompes Funèbres Roblot,0,1,0,1,1,1,1,,,,1,1,1,0,1,1,1,https://meilleures-pompes-funebres.com/06/grasse/roblot-grasse-chemin-de-la-pouiraque,0,1,1,1,,-1,0,0
261,38702,a46ed56383dcd7ca,Groupe O.G.F - Pompes Funèbres ROBLOT Chambre funéraire,43.6474346,6.9125702,"41, chemin de la POuiraque",06130,2122,Grasse,06069,1,0493098820,,,2020-10-23 10:12:21.723293,,0,0,1,0,0,0,0,,,,-1,-1,-1,-1,-1,-1,-1,,-1,-1,-1,-1,,-1,2,2
262,38703,81f3f705dea82dd5,Pompes funèbres Sublimatorium Florian Leclerc,43.6395715,6.9416853,65 boulevard Emmanuel Rouquier,06130,2122,Grasse,06069,1,0493360070,pfs.florianleclerc@orange.fr,,2020-10-23 10:12:21.841646,Services funéraires Sublimatorium Florian Leclerc,1,1,0,0,1,0,1,,,2016-06-006,-1,1,1,1,1,1,-1,https://meilleures-pompes-funebres.com/06/grasse/pompes-funebres-florian-leclerc,0,0,0,1,798 849 451 00033,-1,0,0
263,38704,b79e6c2dc20d9495,Pompes Funèbres Nationales,43.658085,6.9233708,5 rue Tracastel,06130,2122,Grasse,06069,1,0660021979,contact@pompesfunebresnationale.com,,2020-10-23 10:12:21.947152,,1,1,1,0,1,1,1,,,,-1,1,0,1,1,1,-1,https://meilleures-pompes-funebres.com/06/grasse/pompes-funebres-nationale,0,0,1,1,484 739 164 00024,-1,0,0
264,38705,3bde57ce16842f33,Pompes Funèbres Osiris,43.6545535,6.9447947,21 chemin du Moulin de Brun,06130,2122,Grasse,06069,1,0493402424,info@osiris.rip,,2020-10-23 10:12:22.060493,,1,1,1,1,1,1,1,,,,1,1,0,1,1,1,-1,,0,0,0,1,810 965 244 00033,-1,0,0
265,38706,81d121188d5c39f4,Pompes Funèbres Funérama,43.6513284,6.9231886,7 avenue Sidi Brahim C/0 Option Bureau,06130,2122,Grasse,06069,1,0493707779,pf.funerama@gmail.com,,2020-10-23 10:12:22.172888,,1,1,0,1,1,1,1,,,,1,1,0,0,1,1,-1,https://meilleures-pompes-funebres.com/06/grasse/pompes-funebres-funerama,0,0,0,1,815 159 967 00026,-1,2,11
266,38707,eb8ea97bd06e5908,Pompes Funèbres de ACACIA Pompes Funèbres – Pompes Funèbres EUROCLERC (établissement secondaire),43.6513284,6.9231886,7 avenue Sidi Brahim C/0 option Bureau,06130,2122,Grasse,06069,1,0493098734,,,2020-10-23 10:12:22.283582,,0,0,0,1,1,1,1,,,,-1,-1,-1,-1,-1,-1,-1,,-1,-1,-1,-1,,-1,2,0
267,38708,d1812468e01545a0,Pompes Funèbres Pégomassoises Abyss Funéraire,43.6513284,6.9231886,7 avenue Sidi Brahim C/0 Option Bureau,06130,2122,Grasse,06069,1,0493362963,thierrytosti@gmail.com,,2020-10-23 10:12:22.399267,,0,1,1,0,1,0,0,,,2018.08.016,-1,1,-1,-1,1,1,1,,-1,-1,-1,-1,,-1,2,0
268,38709,07f221bac2894c3d,Pompes Funèbres Albert Letizi,43.7218262,7.1137489,10 avenue Marcellin Maurel,06140,2120,Vence,06157,2,0493248330,contact@pompesfunebresletizi.fr,,2020-10-23 10:12:22.505064,,0,1,0,0,0,0,0,,,2013.06.001,1,1,1,0,1,1,1,https://meilleures-pompes-funebres.com/06/vence/albert-letizi-pompes-funebres,0,0,0,1,789 714 730 00023,-1,0,0
269,38710,e34cf59ac00c9303,Pompes Funèbres Roc'Eclerc,43.7225762,7.1110274,1 avenue de la Résistance,06140,2120,Vence,06157,2,0493597245,cdc@roc-eclerc.fr,,2020-10-23 10:12:22.621279,Roc Eclerc,1,1,0,1,1,1,1,,,,1,1,0,0,1,1,1,,0,1,1,1,302 077 169 00779,-1,0,0
270,38711,52c3a3407d3ecf6b,Pompes Funèbres Générales,43.7226854,7.1105913,"9 bis, avenue de la Résistance",06140,2120,Vence,06157,2,0493586110,Agence-Vence-1@PFG.FR,,2020-10-23 10:12:22.727424,PFG Services Funéraires,1,1,1,1,1,1,1,,,,1,1,1,0,1,1,1,,-1,1,1,1,542 076 799 21490,-1,0,0
271,38712,583a53fa136dbc40,Pompes Funèbres Assistance Professionnelle du Funéraire,43.7663227,7.4836119,"31, avenue Antoine Péglion Quartier Carnolès",06190,2256,Roquebrune-Cap-Martin,06104,2,0492102601,contact@pompesfunebres-apdf.fr,,2020-10-23 10:12:22.923154,,0,1,0,0,1,1,1,,,,-1,-1,-1,-1,-1,-1,-1,https://meilleures-pompes-funebres.com/06/roquebrune-cap-martin/assistance-pro-du-funera,-1,1,1,1,,-1,0,0
272,38713,bd722d2fa30d35c5,Pompes Funèbres de Roquebrune,43.7656074,7.4842838,1 rue François Ratto,06190,2256,Roquebrune-Cap-Martin,06104,2,0492090577,pf.roquebrune@orange.fr,,2020-10-23 10:12:23.026070,,0,1,0,0,1,1,0,,,2018.06.015,-1,1,1,0,1,1,1,https://meilleures-pompes-funebres.com/06/roquebrune-cap-martin/pompes-funebres-de-roquebrune,-1,0,0,1,819 065 053 00012,-1,0,0
273,38714,f35d7fca9d152bac,Pompes funèbres Florian Leclerc Sublimatorium,43.6766709,7.2256381,"51, avenue Saint Augustin",06200,8,Nice,06088,1,0492151508,accfsublimanice@gmail.com,,2020-10-23 10:12:23.138166,Services funéraires Sublimatorium Florian Leclerc,0,1,1,0,1,0,0,,,,1,0,1,0,1,1,1,https://meilleures-pompes-funebres.com/06/nice/pompes-funebres-florian-leclerc-sublimatorium,0,1,1,1,838 301 448 00018,-1,0,0
274,38715,ffb86b4a6979ef5e,Sublimatorium Florian LECLERC,43.7164158,7.2811135,87 avenue Maréchal Lyautey,06200,8,Nice,06088,1,0492151508,accfsublimanice@gmail.com,,2020-10-23 10:12:23.249091,Services funéraires Sublimatorium Florian Leclerc,0,1,1,0,1,0,0,,,,0,0,1,0,1,1,1,https://meilleures-pompes-funebres.com/06/nice/pompes-funebres-pascal-leclerc,-1,-1,-1,-1,,-1,0,0
275,38716,0dc54b215b86f271,Pompes Funèbres des Collines - Le Choix Funéraire,43.6782238,7.2182382,64 avenue Sainte Marguerite,06200,8,Nice,06088,1,0493413952,pfcollines7@orange.fr,,2020-10-23 10:12:23.356455,Le Choix Funéraire,1,1,0,1,1,1,1,,,2013 06 03,1,1,1,0,1,1,1,https://meilleures-pompes-funebres.com/06/nice/pompes-funebres-des-collines-ouest,0,0,1,1,433 864 204 00113,-1,0,0
276,38717,7728278d3109db78,Accueil Funéraire Robaut,43.7132061,7.2249852,265 boulevard de la Madeleine,06200,8,Nice,06088,1,0493830137,a.prieur@accueil-funeraire-robaut.fr,,2020-10-23 10:12:23.469792,Roc Eclerc,1,1,1,1,1,1,1,,,,0,1,0,0,1,0,-1,https://meilleures-pompes-funebres.com/06/nice/pompes-funebres-acropolis,0,0,0,0,302 077 169 00290,-1,0,0
277,38718,8374b9d3351f50f9,ROC ECLERC Nice,43.6773511,7.2258746,2 avenue Sainte Marguerite,06200,8,Nice,06088,1,0493212130,cdc@roc-eclerc.fr,,2020-10-23 10:12:23.562961,Roc Eclerc,1,1,0,1,1,1,1,,,,1,1,1,0,1,1,1,https://meilleures-pompes-funebres.com/06/nice/pompes-funebres-pascal-leclerc-1,0,1,1,1,302 077 169 00258,-1,0,0
278,38719,0f4f4074cc2f26d0,Services Funéraires Gautier Robaut,43.6752544,7.2268175,1 avenue du Docteur Roux et avenue des Pins,06200,8,Nice,06088,1,0492103040,a.prieur@accueil-funeraire-robaut.fr,,2020-10-23 10:12:23.669201,,1,1,0,1,1,1,1,,,,0,1,0,0,1,1,1,,-1,-1,-1,-1,302 077 169 00886,-1,0,0
279,38720,72db14ef0d6a4266,Groupe O.G.F - Pompes Funèbres ROBLOT (établissement secondaire),43.6763422,7.2252379,"59, avenue Saint Augustin",06200,8,Nice,06088,1,0492298290,,,2020-10-23 10:12:23.777344,,0,1,0,1,1,1,1,,,,-1,-1,-1,-1,-1,-1,-1,,-1,-1,-1,-1,,-1,2,1
280,38721,ed394e22cca82c63,Pompes Funèbres Le Pass'age,43.7004472,7.2373488,109 boulevard de La Madeleine,06200,8,Nice,06088,1,0648844546,pompesfunebreslepass.age@gmail.com,,2020-10-23 10:12:23.887342,,0,1,0,0,0,0,0,,,2018-06-023,0,0,1,0,1,1,1,,0,1,1,1,850 882 531 00013,-1,0,0
281,38722,5804896756f4805f,Pompes Funèbres Riviera Funéraire,43.7005421,7.2745164,4 rue Foncet,06200,8,Nice,06088,1,0497063074,contact@riviera-funeraire.com,,2020-10-23 10:12:24.001417,,1,1,0,0,1,1,1,,,,0,1,0,0,1,1,1,https://meilleures-pompes-funebres.com/06/nice/pompes-funebres-riviera-funeraire,0,0,1,1,837 493 493 00022,-1,0,0
282,38723,8811b1f46d33a20d,Pompes Funèbres Marbrerie Grego,43.5790671,7.0543673,5 Avenue de l'Hôpital,06220,2153,Vallauris,06155,2,0492969805,joelgrego@hotmail.fr,,2020-10-23 10:12:24.206876,,0,1,0,0,1,0,0,,,2016 06 030,1,1,-1,-1,1,1,1,,-1,-1,-1,1,339 591 117 00025,-1,0,0
283,38724,3abe3ccfdc8ebd89,SAS Pompes Funèbres CONSTELLATION,43.5688162,7.0737872,13 bis avenue Pierre Chalmette,06220,2153,Vallauris,06155,2,0650962006,,,2020-10-23 10:12:24.297911,,0,1,0,0,1,0,1,,,,-1,-1,-1,-1,-1,-1,-1,,-1,-1,-1,-1,,-1,1,0
284,38725,59f7a1def067a21b,Pompes Funèbres Roc'Eclerc,43.5794501,7.0559787,avenue de l’Hôpital « Le Saint-Jean »,06220,2153,Vallauris,06155,2,0493648593,cdc@roc-eclerc.fr,,2020-10-23 10:12:24.395333,Roc Eclerc,1,1,0,1,1,1,1,,,,1,1,0,0,1,1,1,https://meilleures-pompes-funebres.com/06/vallauris/pompes-funebres-saint-bernard,0,1,1,1,302 077 169 00381,-1,0,0
285,38726,003ce66f3b63e284,Pompes Funèbres de la Liberté,43.5802266,7.0587488,"38, place Saint Roch",06220,2153,Vallauris,06155,2,0492380895,,,2020-10-23 10:12:24.508665,,1,1,0,1,1,1,1,,,,-1,-1,-1,-1,1,-1,-1,,-1,-1,-1,1,813 660 909 00041,-1,0,0
286,38727,a753544f9c18bae4,Pompes Funèbres Roblot,43.5784302,7.0549941,"7 Boulevard du Docteur, Boulevard Jacques Ugo",06220,2153,Vallauris,06155,2,0493649779,Agence-Vallauris-1@ROBLOT.FR,,2020-10-23 10:12:24.622662,Pompes Funèbres Roblot,1,1,1,1,1,1,1,,,,1,1,1,0,1,1,1,https://meilleures-pompes-funebres.com/06/vallauris/roblot-vallauris-boulevard-du-docteur-jacques-ugo,0,1,1,1,542 076 799 20070,-1,0,0
287,38728,6db63598261fe16d,Pompes Funèbres Roc-Eclerc,43.7028142,7.3091951,"2, avenue Maréchal Joffre",06230,2145,Villefranche-sur-Mer,06159,2,0493134427,cdc@roc-eclerc.fr,,2020-10-23 10:12:24.738433,Roc Eclerc,1,1,0,1,1,1,1,,,,1,1,1,-1,1,1,1,,-1,-1,1,1,,-1,0,0
288,38729,027fa2e4be3345cc,Pompes funèbres Mouginoises,43.5977609,6.9861763,39 avenue du Tournamy,06250,2194,Mougins,06085,2,0492928768,contact@pompesfunebres-lamoureux.fr,,2020-10-23 10:12:24.851989,,0,1,0,0,1,1,0,,,,1,1,1,0,1,1,0,https://meilleures-pompes-funebres.com/06/mougins/pompes-funebres-mouginoises,0,0,1,1,807 934 120 00013,-1,0,0
289,38730,7d41a65e269da966,Pompes Funèbres Cavacece,43.6155182,6.9720005,85 route de La Roquette,06250,2194,Mougins,06085,2,0625064654,,,2020-10-23 10:12:24.964754,,0,1,0,0,0,1,1,,,,-1,-1,-1,-1,-1,-1,-1,https://meilleures-pompes-funebres.com/06/mougins/cavacece-jean-stephane,-1,-1,-1,-1,522 373 539 00017,-1,1,0
290,38731,a4a1c4a2340a1f57,Pompes Funèbres Marbrerie PEZZINI,43.6138065,6.9756439,"1433/2, avenue Saint Martin",06250,2194,Mougins,06085,2,0493755340,,,2020-10-23 10:12:25.056082,,0,1,0,1,1,1,1,,,,-1,-1,1,-1,1,1,1,https://meilleures-pompes-funebres.com/06/mougins/chambre-funeraire-pezzini,-1,-1,-1,-1,413 422 130 00026,-1,0,0
291,38732,a7205f9fa15ed872,Pompes Funebres Muraire,43.953949,6.887769,Zone artisanale Saint-Roch,06260,2150,Puget-Théniers,06099,2,0493050498,pfmuraire@orange.fr,,2020-10-23 10:12:25.153228,,0,1,0,1,1,1,1,,,,1,1,1,-1,1,1,1,https://meilleures-pompes-funebres.com/06/puget-theniers/pompes-funebres-muraire-bernard,-1,-1,-1,1,483 366 803 00011,-1,0,0
292,38733,f4f95b687da0666c,Pompes Funèbres de la Lumière,43.6582599,7.1250101,117 avenue des Ferrayonnes,06270,2184,Villeneuve-Loubet,06161,2,0641110849,pfdl06270@orange.fr,,2020-10-23 10:12:25.267334,,1,1,1,1,1,1,1,,,,0,1,1,0,1,1,1,,0,1,1,1,844 472 399 00014,-1,0,0
293,38734,1397b26f309ce039,MULTI SERVICES 06 Auto-entreprise,43.6605015,7.1208949,13 bis corniche Notre Dame 06270,06270,2184,Villeneuve-Loubet,06161,2,0614967673,,,2020-10-23 10:12:25.379294,,0,0,0,0,0,1,0,,,,-1,-1,-1,-1,-1,-1,-1,,-1,-1,-1,-1,,-1,1,0
294,38735,9a93a802635ebe31,ANTEVITA EURL,43.735,7.2913889,27 bld de l’Ariane C/O Novaffaires,06300,8,Nice,06088,1,0623026885,,,2020-10-23 10:12:25.479704,,1,1,0,0,0,0,0,,,,-1,-1,-1,-1,-1,-1,-1,,-1,-1,-1,-1,,-1,2,0
295,38736,8a6ae11414b3de8f,Assistance Professionnelle Du Funéraire,43.7035219,7.2826943,"115, rue de Roquebillière",06300,8,Nice,06088,1,0493313210,contact@pompesfunebres-apdf.fr,,2020-10-23 10:12:25.584155,,0,1,0,0,1,1,1,,,,0,1,1,0,1,0,-1,,0,0,1,1,450 915 046 00038,-1,0,0
296,38737,5befa66bf47bc588,SARL Azuréenne de Fossoyage,43.736035,7.3044297,119 boulevard de L’Ariane,06300,8,Nice,06088,1,0616262323,,,2020-10-23 10:12:25.692874,,0,0,0,0,0,1,0,,,,-1,-1,-1,-1,-1,-1,-1,,-1,-1,-1,-1,,-1,2,0
297,38738,ac8dc216675dbb0f,Pompe Funèbre Musulmane El Saleme,43.7379344,7.297383,"31, rue Guiglionda de Sainte Agathe Les Jardins de l’Ariane",06300,8,Nice,06088,1,0493270318,pfmidialpes@wanadoo.fr,,2020-10-23 10:12:25.794243,,1,1,0,0,1,0,1,,,,0,1,1,0,1,0,-1,,0,0,0,0,752 315 283 00016,1,0,0
298,38739,1071bfcf955366bf,Pompes Funèbres Alliance Funéraire,43.7250912,7.2852027,2 rue Maccario,06300,8,Nice,06088,1,0493294165,Agence-Nice-7@alliancefuneraire.com,,2020-10-23 10:12:25.892266,,1,1,0,1,1,1,1,,,,1,1,1,0,1,1,1,https://meilleures-pompes-funebres.com/06/nice/pompes-funebres-alliance-funeraire,0,1,1,1,513 130 385 00067,-1,0,0
299,38740,71c04fd53adbc6c6,Accueil Funéraire Robaut,43.7140869,7.2930618,66 avenue Virgile Barel,06300,8,Nice,06088,1,0492000355,,,2020-10-23 10:12:25.992412,Roc Eclerc,1,1,0,1,1,1,1,,,,1,0,0,0,1,1,1,https://meilleures-pompes-funebres.com/06/nice/pompes-funebres-alliance-funeraire,0,0,0,0,302 077 169 00605,-1,0,0
300,38741,7b44a0c117e5d47d,ROC ECLERC Nice,43.7017612,7.2837876,"25, rue Barla",06300,8,Nice,06088,1,0493265974,cdc@roc-eclerc.fr,,2020-10-23 10:12:26.109704,Roc Eclerc,1,1,0,1,1,1,1,,,,0,1,1,0,1,1,1,,0,1,1,1,302 077 169 00274,-1,0,0
301,38742,f8f4ab3a1ed07d77,Groupement Funeraire Facia,43.7032884,7.2856833,"14, rue Auguste Gall",06300,8,Nice,06088,1,0493260404,contact@facia.fr,,2020-10-23 10:12:26.224454,,0,1,0,1,1,0,0,,,,0,1,0,0,1,1,1,,0,0,0,1,491 180 733 00025,-1,0,0
302,38743,afacef35326c56c9,Groupe OGF – Pompes Funèbres ALLIANCE FUNERAIRE (établissement secondaire),43.7250912,7.2852027,2 rue Maccario,06300,8,Nice,06088,1,0493294165,,,2020-10-23 10:12:26.320247,,0,1,0,1,1,1,1,,,,-1,-1,-1,-1,-1,-1,-1,,-1,-1,-1,-1,,-1,2,1
303,38744,54c2bb66f5bdfda0,Pompes Funèbres Genérales,43.6964114,7.2715939,"3, rue Alexandre Mari",06300,8,Nice,06088,1,0493857362,Agence-Nice-1@PFG.FR,,2020-10-23 10:12:26.430187,PFG Services Funéraires,1,1,1,1,1,1,1,,,18-75-0001,1,1,1,0,1,1,1,https://meilleures-pompes-funebres.com/06/nice/pompes-funebres-generales,0,1,1,1,,-1,0,0
304,38745,233969e416e58da9,Pompes Funèbres Lamy Trouvain - Dignité Funéraire,43.6962059,7.2737085,"17, place du Palais de Justice",06300,8,Nice,06088,1,0493620900,Agence-Nice-2@DIGNITE.FR,,2020-10-23 10:12:26.542470,Dignité Funéraire,1,1,0,1,1,1,1,,,,1,1,1,0,1,1,1,https://meilleures-pompes-funebres.com/06/nice/dignite-pompes-funebres-et-marbrerie-lamy-trouvain,0,1,1,1,,-1,0,0
305,38746,6b1d509f577ab5d6,Pompes Funèbres ROBLOT,43.6961639,7.2719031,"2, rue Hôtel de Ville",06300,8,Nice,06088,1,0493627373,Agence-Nice-4@ROBLOT.FR,,2020-10-23 10:12:26.660444,Pompes Funèbres Roblot,1,1,0,1,1,1,1,,,18-75-0001,1,1,1,0,1,1,1,,0,1,1,1,,-1,0,0
306,38747,6125b10582943439,Pompes Funèbres Robaut Prestations,43.7069217,7.2831159,"2/4, boulevard Risso",06300,8,Nice,06088,1,0492004141,Agence-Nice-6@ROBAUT-PRESTATIONS.COM,,2020-10-23 10:12:26.765300,,0,1,0,1,1,1,1,,,,1,0,1,0,1,1,1,,0,1,1,1,390 044 915 00069,-1,0,0
307,38748,a2c38dbc5a646413,Robaut Prestations,43.7262977,7.2836867,53 Avenue Joseph Raybaud,06300,8,Nice,06088,1,0493319285,,,2020-10-23 10:12:26.876835,,1,0,1,0,0,0,0,,,,0,0,0,0,0,0,-1,,0,0,0,1,,-1,2,2
308,38749,c3ef39755d08ba71,Pompes Funèbres Lutèce,43.6964637,7.2712287,1 rue Alexandre Mari,06300,8,Nice,06088,1,0497000404,contact@pflutece.com,,2020-10-23 10:12:26.995379,,1,1,0,1,1,1,1,,,,0,1,1,0,1,1,1,https://meilleures-pompes-funebres.com/06/nice/pompes-funebres-lutece,0,1,1,1,414 635 300 00026,-1,0,0
309,38750,1474b4c86ceed402,Pompes Funèbres DES COLLINES NICOISES - Le Choix Funéraire,43.7238964,7.2843806,"22, voie Romaine",06300,8,Nice,06088,1,0493926675,,,2020-10-23 10:12:27.100045,Le Choix Funéraire,1,1,0,0,1,0,0,,,,0,0,0,0,1,1,1,https://meilleures-pompes-funebres.com/06/nice/pompes-funebres-la-serenite,0,0,0,0,412 724 973 00018,-1,0,0
310,38751,a0c4676dae3bfc36,Service Catholique des Funérailles,43.7064175,7.283137,8 avenue de La République,06300,8,Nice,06088,1,0489946232,accueil.06@s-c-f.org,,2020-10-23 10:12:27.190069,,0,1,0,0,1,0,0,,,2019.06.005,0,0,0,0,1,0,-1,https://meilleures-pompes-funebres.com/06/nice/service-catholique-des-funerailles,0,0,0,0,822 867 750 00025,3,0,0
311,38752,57412be491d233ad,Pompes Funèbres De Roquefort,43.6637346,7.0632028,Place du Cap-Civatte,06330,2140,Roquefort-les-Pins,06105,2,0493723320,pfnicoise@gmail.com,,2020-10-23 10:12:27.301376,,0,1,0,1,1,1,1,,,2017-06-029,-1,1,1,0,1,1,1,https://meilleures-pompes-funebres.com/06/roquefort-les-pins/pompes-funebres-de-roquefort,-1,0,0,1,,-1,0,0
312,38753,3ceb01061d510fb2,Assistance Professionnelle du Funéraire,43.7441945,7.3141717,47 boulevard du Général de Gaulle,06340,2207,La Trinité,06149,2,0492261199,,,2020-10-23 10:12:27.414969,,0,1,0,0,1,1,1,,,,-1,1,1,0,1,1,1,https://meilleures-pompes-funebres.com/06/la-trinite/marbrerie-piccioni,-1,1,1,1,,-1,0,0
313,38754,c2772f4c46a80bb3,Accueil Funéraire Robaut,43.7422749,7.3133104,"7 - 11, place Pasteur",06340,2207,La Trinité,06149,2,0493545453,,,2020-10-23 10:12:27.530558,Roc Eclerc,1,1,0,1,1,1,1,,,,-1,0,-1,-1,-1,1,1,https://meilleures-pompes-funebres.com/06/la-trinite/accueil-funeraire,-1,-1,-1,1,,-1,0,0
314,38755,15e575464e3bc3ee,Pompes Funèbres MISTRAL SERVICES FUNERAIRES,43.7444196,7.312543,ZA Anatole France – Impasse 2,06340,2207,La Trinité,06149,2,0493867642,,,2020-10-23 10:12:27.625864,,0,1,0,1,0,1,1,,,,-1,-1,-1,-1,-1,-1,-1,,-1,-1,-1,-1,,-1,2,10
315,38756,78c714a7193effdc,WOODS Damien (auto-entreprise),43.7503051,7.3686325,400 chemin du Castel,06340,2207,La Trinité,06149,2,0658517344,,,2020-10-23 10:12:27.718359,,0,0,0,0,0,1,0,,,,-1,-1,-1,-1,-1,-1,-1,,-1,-1,-1,-1,,-1,2,10
316,38757,66013cb0724b6576,Société d’exploitation des Pompes Funèbres et Marbrerie - chambre funéraire - Daniel PEZZINI -,43.608094,6.9547208,"Parc de l’Argile 460/57, avenue de la Quiéra",06370,2175,Mouans-Sartoux,06084,2,0492922020,,,2020-10-23 10:12:27.829353,,0,0,1,0,0,0,0,,,,-1,-1,-1,-1,-1,-1,-1,,-1,-1,-1,-1,,-1,2,2
317,38758,3714bee9e63fa49d,Régie municipale de pompes funèbres de Mouans-Sartoux,43.620444,6.9703358,Mairie de Mouans-Sartoux,06370,2175,Mouans-Sartoux,06084,2,0492924700,,,2020-10-23 10:12:27.940200,,0,1,0,1,0,1,1,,,,-1,-1,-1,-1,-1,-1,-1,,-1,-1,-1,-1,,-1,2,5
318,38759,f04662a806f6cad1,Pompes Funèbres Crématiste Funérama,43.6197953,6.9338707,9 chemin de La Dégoutte,06370,2175,Mouans-Sartoux,06084,2,0493700606,pf.funerama@gmail.com,,2020-10-23 10:12:28.052216,,0,1,0,1,1,1,1,,,,1,1,1,0,1,1,0,https://meilleures-pompes-funebres.com/06/mouans-sartoux/pompes-funebres-funerama,0,0,0,1,815 159 967 00018,-1,0,0
319,38760,ceb80138a42544ad,Accueil Funéraire ROBAUT,43.8098882,7.3148626,4 place Docteur Albert Ollivier,06390,2169,Contes,06048,2,0497000497,,,2020-10-23 10:12:28.191742,Roc Eclerc,1,1,0,1,1,1,1,,,,-1,1,-1,-1,1,1,1,,-1,-1,-1,-1,302 077 169 00308,-1,0,0
320,38761,63902b5cef6885ba,Pompes Funèbres des Vallées,43.8097984,7.3145868,"1,place Ollivier",06390,2169,Contes,06048,2,0493795070,Agence-Contes-1@DIGNITE.FR,,2020-10-23 10:12:28.297045,Dignité Funéraire,0,1,0,1,1,1,1,,,,-1,1,-1,-1,1,1,1,https://meilleures-pompes-funebres.com/06/contes/pompes-funebres-des-vallees,-1,-1,1,-1,,-1,0,0
321,38762,d594a59d5eff5814,Pompes Funèbres des Collines - le Choix Funéraire,43.559618,7.0052401,"207, avenue de Grasse",06400,7,Cannes,06029,1,0493580002,pfcollines3@orange.fr,,2020-10-23 10:12:28.409453,Le Choix Funéraire,0,1,0,1,1,1,1,,,2013 06 033,0,1,1,0,1,1,1,https://meilleures-pompes-funebres.com/06/cannes/pompes-funebres-des-collines-le-choix-funeraire,0,1,1,1,433 864 204 00097,-1,0,0
322,38763,bdcc0fcd253659ff,Pompes Funèbres et Marbrerie Collomp,43.5621424,7.0055169,"Résidence les Chênes 20/22, avenue des Broussailles",06400,7,Cannes,06029,1,0493380508,agence.cannes@pf-collomp.fr,,2020-10-23 10:12:28.512974,,1,1,1,1,1,1,1,,,2017.06.001,1,1,1,0,1,1,1,,0,0,1,1,433 661 154 00032,-1,0,0
323,38764,d0c083ca4ec70f29,Pompes Funèbres de la Liberté,43.5636493,7.0031869,"263, avenue de Grasse",06400,7,Cannes,06029,1,0492995000,,,2020-10-23 10:12:28.628996,,1,1,0,1,1,1,1,,,,-1,-1,-1,-1,-1,-1,-1,,-1,-1,-1,-1,,-1,0,0
324,38765,999e22a3716acccd,SAS E-DEUIL,43.561767,7.0038691,"196, avenue de Grasse",06400,7,Cannes,06029,1,0492980838,,,2020-10-23 10:12:28.738499,,1,1,0,1,1,1,1,,,,-1,-1,-1,-1,-1,-1,-1,,-1,-1,-1,-1,,-1,2,4
325,38766,24aef7d80b9bcbbc,Pompes Funèbres Roc-Eclerc,43.562089,7.005314,20-22 avenue des Broussailles,06400,7,Cannes,06029,1,0493381516,cdc@roc-eclerc.fr,,2020-10-23 10:12:28.855445,Roc Eclerc,1,1,0,1,1,1,1,,,,1,1,1,0,1,1,1,https://meilleures-pompes-funebres.com/06/cannes/pompes-funebres-roc-eclerc,0,1,1,1,,-1,0,0
326,38767,4311f45db11c87ae,Pompes Funèbres Robaut,43.5625567,7.0055282,24 avenue des Broussailles,06400,7,Cannes,06029,1,0493686768,,,2020-10-23 10:12:28.969022,,1,1,0,1,1,1,1,,,,-1,1,-1,-1,1,1,-1,https://meilleures-pompes-funebres.com/06/cannes/pompes-funebres-robaut,-1,-1,-1,1,302 077 169 00662,-1,0,0
327,38768,5bc4eb03dd5a7dcf,Pompes Funèbres et Marbrerie BENVENUTI - Dignité Funéraire,43.5608369,7.0044267,"10, allée du Cimetière",06400,7,Cannes,06029,1,0493381818,Agence-Cannes-3@DIGNITE.FR,,2020-10-23 10:12:29.084068,Dignité Funéraire,0,1,1,1,1,1,1,,,,0,1,1,0,1,1,1,https://meilleures-pompes-funebres.com/06/cannes/pompes-funebres-benvenuti,0,1,1,1,397 929 555 00027,-1,0,0
328,38769,a02d37d8d1566c4e,Pompes Funèbres ALLIANCE FUNERAIRE,43.5686844,7.0051657,343 avenue de Grasse,06400,7,Cannes,06029,1,0493948997,Agence-Cannes-4@alliancefuneraire.com,,2020-10-23 10:12:29.209066,,0,1,0,1,1,1,1,,,,1,1,1,0,1,1,1,https://meilleures-pompes-funebres.com/06/cannes/pompes-funebres-alliance-funeraire,0,1,1,1,,-1,0,0
329,38770,40dbf9d238bddd67,Pompes Funèbres Générale,43.5593023,7.0057796,164 avenue de Grasse,06400,7,Cannes,06029,1,0493684047,Agence-Cannes-1@PFG.FR,,2020-10-23 10:12:29.321136,PFG Services Funéraires,0,1,0,1,1,1,1,,,,0,1,1,0,1,1,1,https://meilleures-pompes-funebres.com/06/cannes/pfg-services-funeraires,0,1,1,1,,-1,0,0
330,38771,34d96a67f598337f,Pompes Funèbres ROBLOT,43.5608545,7.0044893,"221, avenue de Grasse",06400,7,Cannes,06029,1,0492980005,Agence-Cannes-2@ROBLOT.FR,,2020-10-23 10:12:29.433374,Pompes Funèbres Roblot,0,1,1,1,1,1,1,,,,1,1,1,0,1,1,1,https://meilleures-pompes-funebres.com/06/cannes/roblot-cannes-avenue-de-grasse,0,1,1,1,,-1,0,0
331,38772,d98a5cdb04f3bb8b,Groupe O.G.F - Pompes Funèbres ROBLOT Chambre Funéraire,43.5615524,7.0039439,"223, avenue de Grasse",06400,7,Cannes,06029,1,0493683535,,,2020-10-23 10:12:29.522669,,0,0,1,0,0,0,0,,,,-1,-1,-1,-1,-1,-1,-1,,-1,-1,-1,-1,,-1,2,2
332,38773,07063ecd0862191f,Pompes Funèbres NATIONALE SARL Thanato Service (établissement secondaire),43.5576031,7.0067134,173 avenue de Grasse,06400,7,Cannes,06029,1,0493990328,,,2020-10-23 10:12:29.631167,,1,1,0,0,1,1,1,,,,-1,-1,-1,-1,-1,-1,-1,,-1,-1,-1,-1,,-1,2,0
